City_ID,City,Lat,Lng,Max Temp,Humidity,Cloudiness,Wind Speed,Country,Date
0,punta arenas,-53.15,-70.9167,11.06,82,0,2.06,CL,1675824761
1,jamestown,42.097,-79.2353,2.8,93,100,5.66,US,1675824593
2,bredasdorp,-34.5322,20.0403,18.25,81,7,2.93,ZA,1675824784
3,saint george,37.1041,-113.5841,8.33,46,0,3.09,US,1675824506
4,taoudenni,22.6783,-3.9836,17.1,21,100,5.32,ML,1675824787
5,albany,42.6001,-73.9662,1.79,78,97,1.34,US,1675824363
6,jacobina,-11.1806,-40.5183,19.78,61,78,1.12,BR,1675824788
7,geraldton,-28.7667,114.6,31.23,33,0,3.6,AU,1675824725
8,dongsheng,39.8161,109.9776,-3.66,46,100,4.82,CN,1675824790
9,chuy,-33.6971,-53.4616,20.81,82,18,3.02,UY,1675824716
10,isla mujeres,21.2311,-86.731,25.65,84,0,7.78,MX,1675824792
11,ushuaia,-54.8,-68.3,9.81,76,20,5.66,AR,1675824688
12,faanui,-16.4833,-151.75,27.26,72,24,5.47,PF,1675824793
13,bengkulu,-3.8004,102.2655,28.68,57,65,3.14,ID,1675824546
14,buala,-8.145,159.5921,27.51,85,90,3.44,SB,1675824795
15,kloulklubed,7.0419,134.2556,29.28,77,100,8.09,PW,1675824796
16,esperance,-33.8667,121.9,22.01,64,78,5.21,AU,1675824798
17,pangnirtung,66.1451,-65.7125,-33.99,84,5,2.34,CA,1675824799
18,bandarbeyla,9.4942,50.8122,24.99,72,98,6.37,SO,1675824800
19,santiago de chuco,-8.15,-78.1833,11.29,91,87,0.48,PE,1675824801
20,pevek,69.7008,170.3133,-29.91,95,100,1.47,RU,1675824739
21,luderitz,-26.6481,15.1594,18.43,82,19,8.5,NA,1675824742
22,rikitea,-23.1203,-134.9692,26.58,69,37,4.04,PF,1675824805
23,mataura,-46.1927,168.8643,14.49,51,64,5.22,NZ,1675824640
24,chokurdakh,70.6333,147.9167,-37.68,99,100,1.54,RU,1675824710
25,saint-philippe,-21.3585,55.7679,25.77,83,89,5.97,RE,1675824811
26,fortuna,40.5982,-124.1573,11.1,84,75,3.6,US,1675824813
27,hermanus,-34.4187,19.2345,19.33,83,0,5.33,ZA,1675824814
28,monrovia,6.3005,-10.7969,23.87,90,98,2.54,LR,1675824668
29,victoria,22.2855,114.1577,19.42,84,97,4.92,HK,1675824672
30,zhicheng,30.2956,111.5047,9.39,87,100,3.49,CN,1675824814
31,arraial do cabo,-22.9661,-42.0278,23.75,92,100,1.04,BR,1675824815
32,guatire,10.4762,-66.5427,20.59,97,92,0.82,VE,1675824815
33,souillac,-20.5167,57.5167,26.21,83,40,5.14,MU,1675824816
34,yashkul,46.1711,45.3435,-6.33,95,100,8.3,RU,1675824816
35,bluff,-46.6,168.3333,12.56,64,49,12.07,NZ,1675824637
36,san rafael del sur,11.8485,-86.4384,26.54,69,23,7.86,NI,1675824817
37,hobart,-42.8794,147.3294,16.92,69,75,6.17,AU,1675824412
38,yokadouma,3.5167,15.05,17.76,32,49,0.6,CM,1675824817
39,airai,-8.9266,125.4092,21.25,79,80,1.49,TL,1675824818
40,grindavik,63.8424,-22.4338,-2.74,59,75,13.89,IS,1675824818
41,dikson,73.5069,80.5464,-21.26,91,100,10.16,RU,1675824707
42,vaini,-21.2,-175.2,29.09,79,75,3.09,TO,1675824752
43,sakakah,29.9697,40.2064,7.76,67,5,7.24,SA,1675824819
44,clyde river,70.4692,-68.5914,-34.87,68,0,2.06,CA,1675824733
45,hasaki,35.7333,140.8333,12.22,67,100,9.22,JP,1675824819
46,rock springs,41.5875,-109.2029,-3.31,80,0,7.2,US,1675824372
47,yeppoon,-23.1333,150.7333,27.88,65,96,9.49,AU,1675824820
48,sabha,27.0377,14.4283,11.07,40,97,5.58,LY,1675824820
49,elat,29.5581,34.9482,9.91,66,20,0.0,IL,1675824821
50,sibolga,1.7427,98.7792,28.37,56,100,0.96,ID,1675824821
51,catuday,16.2923,119.8062,28.33,65,96,3.56,PH,1675824821
52,anloga,5.7947,0.8973,26.77,81,25,4.63,GH,1675824822
53,ancud,-41.8697,-73.8203,13.49,93,2,1.9,CL,1675824822
54,salalah,17.0151,54.0924,20.05,52,0,3.09,OM,1675824823
55,torbay,47.6666,-52.7314,-3.01,85,75,10.8,CA,1675824823
56,colares,38.7992,-9.4469,9.63,70,17,5.36,PT,1675824823
57,ribeira grande,38.5167,-28.7,13.21,65,27,1.79,PT,1675824760
58,tezu,27.9167,96.1667,19.56,49,99,0.71,IN,1675824824
59,hamilton,39.1834,-84.5333,11.35,91,100,2.57,US,1675824549
60,tuktoyaktuk,69.4541,-133.0374,-31.0,76,100,1.54,CA,1675824824
61,vao,-22.6667,167.4833,26.82,70,34,6.09,NC,1675824825
62,sistranda,63.7256,8.834,2.98,78,100,6.05,NO,1675824825
63,nikolskoye,59.7035,30.7861,-1.06,86,100,4.49,RU,1675824825
64,avarua,-21.2078,-159.775,29.03,74,34,4.63,CK,1675824719
65,bambous virieux,-20.3428,57.7575,26.23,83,40,5.14,MU,1675824826
66,saldanha,-33.0117,17.9442,17.03,89,0,5.27,ZA,1675824773
67,vestmannaeyjar,63.4427,-20.2734,0.55,53,100,17.13,IS,1675824787
68,hithadhoo,-0.6,73.0833,27.33,72,15,3.36,MV,1675824826
69,matay,28.419,30.7792,8.08,61,100,0.77,EG,1675824827
70,east london,-33.0153,27.9116,21.48,83,100,4.59,ZA,1675824708
71,guerrero negro,27.9769,-114.0611,16.88,35,0,3.37,MX,1675824827
72,bonga,7.2833,36.2333,14.71,61,6,0.79,ET,1675824828
73,qaanaaq,77.484,-69.3632,-31.9,67,6,2.74,GL,1675824828
74,puerto ayora,-0.7393,-90.3518,26.42,92,55,3.13,EC,1675824732
75,sitka,57.0531,-135.33,2.94,81,100,0.0,US,1675824701
76,kodiak,57.79,-152.4072,-2.27,50,0,7.2,US,1675824709
77,rakaia,-43.75,172.0167,24.65,37,14,7.59,NZ,1675824829
78,makakilo city,21.3469,-158.0858,26.18,70,75,5.14,US,1675824829
79,kapaa,22.0752,-159.319,26.18,86,75,7.2,US,1675824577
80,tupik,54.4253,119.9327,-22.51,93,61,0.33,RU,1675824830
81,north bend,43.4065,-124.2243,9.95,100,75,2.06,US,1675824830
82,mayumba,-3.432,10.6554,24.81,87,94,1.31,GA,1675824831
83,saskylakh,71.9167,114.0833,-34.18,100,100,0.05,RU,1675824831
84,glendive,47.1053,-104.7125,3.79,77,0,3.09,US,1675824832
85,busselton,-33.65,115.3333,26.1,44,0,0.72,AU,1675824832
86,mbanza-ngungu,-5.25,14.8667,19.26,95,85,1.49,CD,1675824832
87,nanortalik,60.1432,-45.2371,-15.26,73,9,8.47,GL,1675824833
88,bethel,41.3712,-73.414,3.3,81,100,1.54,US,1675824661
89,khatanga,71.9667,102.5,-44.17,100,63,1.31,RU,1675824665
90,mehamn,71.0357,27.8492,1.97,69,35,10.29,NO,1675824833
91,riyadh,24.6877,46.7219,12.08,42,24,2.2,SA,1675824686
92,belogorsk,50.9158,128.4611,-23.55,87,31,1.84,RU,1675824834
93,butaritari,3.0707,172.7902,27.25,81,100,9.66,KI,1675824834
94,channel-port aux basques,47.5702,-59.1367,-6.45,77,83,8.1,CA,1675824835
95,sinnamary,5.3833,-52.95,24.02,91,61,4.19,GF,1675824821
96,sao joao da barra,-21.6403,-41.0511,23.2,94,100,1.69,BR,1675824815
97,port alfred,-33.5906,26.891,21.21,88,100,3.13,ZA,1675824652
98,finschhafen,-6.6024,147.8681,29.8,72,98,3.14,PG,1675824835
99,samarai,-10.6167,150.6667,28.08,76,100,6.63,PG,1675824836
100,marolambo,-20.05,48.1167,18.57,98,43,1.16,MG,1675824836
101,inuvik,68.3499,-133.7218,-29.58,73,100,1.54,CA,1675824837
102,hilo,19.7297,-155.09,25.16,90,100,5.66,US,1675824715
103,port hardy,50.6996,-127.4199,4.1,93,75,2.57,CA,1675824837
104,grand gaube,-20.0064,57.6608,26.32,78,24,2.68,MU,1675824838
105,atuona,-9.8,-139.0333,26.2,75,24,7.46,PF,1675824838
106,mtwara,-10.2667,40.1833,25.89,84,100,3.78,TZ,1675824840
107,awjilah,29.1081,21.2869,9.12,60,67,2.73,LY,1675824840
108,sivas,39.7916,37.0019,-10.65,85,100,3.09,TR,1675824840
109,bilibino,68.0546,166.4372,-36.38,98,100,1.11,RU,1675824841
110,sengiley,53.9622,48.7944,-19.96,100,86,2.38,RU,1675824842
111,huarmey,-10.0681,-78.1522,22.46,82,7,2.5,PE,1675824844
112,knysna,-34.0363,23.0471,19.39,86,100,2.6,ZA,1675824845
113,erenhot,43.6475,111.9767,-7.21,52,100,1.35,CN,1675824847
114,saint anthony,45.0205,-93.218,-1.64,81,0,2.57,US,1675824848
115,tasiilaq,65.6145,-37.6368,-17.91,39,0,12.0,GL,1675824849
116,bonfim,3.0833,-59.95,25.43,74,24,3.84,BR,1675824850
117,hasilpur,29.7122,72.5553,14.35,31,6,2.34,PK,1675824851
118,dali,25.7,100.1833,11.85,38,0,2.53,CN,1675824851
119,san quintin,30.4833,-115.95,14.71,52,0,0.98,MX,1675824852
120,husavik,66.0449,-17.3389,-4.81,72,91,6.6,IS,1675824853
121,boende,-0.2167,20.8667,23.98,62,100,1.04,CD,1675824854
122,sarkand,45.41,79.9186,-5.66,65,61,3.31,KZ,1675824855
123,olafsvik,64.8945,-23.7142,-2.35,56,100,13.09,IS,1675824856
124,agrafa,39.136,21.6494,-4.96,80,35,2.19,GR,1675824857
125,northam,51.0333,-4.2167,3.67,92,0,2.87,GB,1675824858
126,tiznit,29.5833,-9.5,6.97,90,0,0.9,MA,1675824858
127,narsaq,60.9167,-46.05,-19.88,65,3,3.94,GL,1675824859
128,mingguang,32.7802,117.9638,10.5,42,99,6.92,CN,1675824860
129,sambava,-14.2667,50.1667,23.62,88,88,3.32,MG,1675824862
130,vieste,41.8825,16.175,5.74,48,25,5.46,IT,1675824863
131,broome,42.2506,-75.833,4.26,77,75,4.63,US,1675824864
132,beringovskiy,63.05,179.3167,-28.02,94,71,3.48,RU,1675824865
133,viedma,-40.8135,-62.9967,19.52,62,37,3.74,AR,1675824688
134,fasa,28.9383,53.6482,4.58,100,90,0.0,IR,1675824868
135,uglovka,58.2392,33.5108,-4.42,92,98,4.79,RU,1675824869
136,plerin,48.5425,-2.7798,-1.0,85,25,0.89,FR,1675824784
137,korla,41.7597,86.1469,-0.38,81,13,1.17,CN,1675824872
138,russellville,35.2784,-93.1338,10.08,96,100,1.34,US,1675824872
139,hastings,50.8552,0.5729,3.07,69,90,1.29,GB,1675824873
140,tuatapere,-46.1333,167.6833,13.78,56,58,7.24,NZ,1675824643
141,port elizabeth,-33.918,25.5701,19.62,91,20,3.09,ZA,1675824784
142,barrow,71.2906,-156.7887,-16.99,78,100,2.57,US,1675824647
143,seoul,37.5683,126.9778,5.66,40,0,3.6,KR,1675824792
144,cartagena,10.3997,-75.5144,25.79,78,0,3.09,CO,1675824415
145,phan thiet,10.9333,108.1,29.88,55,16,4.03,VN,1675824874
146,mahebourg,-20.4081,57.7,26.25,83,40,5.14,MU,1675824874
147,vostok,46.4856,135.8833,-15.4,75,61,5.49,RU,1675824875
148,ratnagiri,16.9833,73.3,23.36,47,41,1.7,IN,1675824875
149,tiksi,71.6872,128.8694,-36.76,99,99,2.68,RU,1675824876
150,okhotsk,59.3833,143.3,-23.47,79,87,5.37,RU,1675824876
151,cap malheureux,-19.9842,57.6142,26.37,79,32,3.13,MU,1675824876
152,lagoa,39.05,-27.9833,13.16,58,98,6.26,PT,1675824877
153,pimentel,-6.8367,-79.9342,24.16,78,0,8.75,PE,1675824877
154,college,64.8569,-147.8028,-14.68,78,40,0.0,US,1675824711
155,yellowknife,62.456,-114.3525,-19.69,84,75,3.09,CA,1675824659
156,kiunga,-6.1219,141.2906,29.84,67,85,3.01,PG,1675824878
157,sri aman,1.2376,111.4621,30.03,79,20,1.03,MY,1675824878
158,nalut,30.3333,10.85,13.56,48,97,4.06,LY,1675824879
159,faya,18.3851,42.4509,11.06,57,3,1.33,SA,1675824762
160,cape town,-33.9258,18.4232,21.23,74,20,4.92,ZA,1675824879
161,trenggalek,-8.05,111.7167,25.61,85,100,0.99,ID,1675824879
162,vardo,70.3705,31.1107,-2.01,86,10,9.26,NO,1675824880
163,ponta do sol,32.6667,-17.1,15.56,62,37,3.72,PT,1675824880
164,altay,47.8667,88.1167,-7.34,75,100,1.41,CN,1675824881
165,omsukchan,62.5333,155.8,-33.33,94,93,2.12,RU,1675824881
166,tangua,-22.7303,-42.7142,22.67,97,100,0.15,BR,1675824881
167,muzaffarabad,34.37,73.4711,7.91,57,67,2.81,PK,1675824882
168,moron,-34.6534,-58.6198,28.31,68,0,4.16,AR,1675824608
169,marion,39.7684,-86.1555,7.21,79,75,4.63,US,1675824625
170,changping,40.2186,116.2197,3.8,34,2,0.28,CN,1675824882
171,provideniya,64.3833,-173.3,-19.94,71,100,3.0,RU,1675824883
172,sao filipe,14.8961,-24.4956,20.13,69,20,4.39,CV,1675824883
173,yar-sale,66.8333,70.8333,-14.27,83,100,9.74,RU,1675824884
174,maceio,-9.6658,-35.7353,23.69,88,20,1.03,BR,1675824700
175,igarka,67.4667,86.5833,-22.27,100,98,1.12,RU,1675824884
176,conakry,9.538,-13.6773,25.08,69,7,3.39,GN,1675824758
177,carnarvon,-24.8667,113.6333,29.83,50,1,6.77,AU,1675824657
178,pailon,-17.65,-62.75,24.5,97,95,1.75,BO,1675824885
179,port lincoln,-34.7333,135.8667,23.86,57,23,3.9,AU,1675824885
180,roma,43.2128,-75.4557,6.57,76,100,2.06,US,1675824661
181,gamba,-2.65,10.0,24.38,85,60,1.08,GA,1675824875
182,ketchikan,55.3422,-131.6461,3.26,93,100,2.06,US,1675824886
183,half moon bay,37.4636,-122.4286,13.34,74,0,6.17,US,1675824886
184,cabo san lucas,22.8909,-109.9124,21.4,62,40,2.06,MX,1675824098
185,tricase,39.9304,18.3553,-0.36,56,59,3.49,IT,1675824887
186,mar del plata,-38.0023,-57.5575,23.38,94,0,9.39,AR,1675824887
187,ures,29.4333,-110.4,14.21,17,0,2.9,MX,1675824888
188,pacific grove,36.6177,-121.9166,11.97,86,0,0.89,US,1675824888
189,warri,5.5167,5.75,25.32,85,8,1.32,NG,1675824868
190,constitucion,-35.3333,-72.4167,15.51,69,0,4.34,CL,1675824621
191,ayan,56.45,138.1667,-26.84,58,26,2.98,RU,1675824889
192,georgetown,5.4112,100.3354,28.96,78,20,5.14,MY,1675824889
193,hami,42.8,93.45,1.17,66,100,1.41,CN,1675824889
194,tulagi,-9.0996,160.1476,27.62,79,100,4.64,SB,1675824890
195,bullhead city,35.1478,-114.5683,16.16,27,0,7.2,US,1675824722
196,fredericton,45.9454,-66.6656,-10.53,85,75,2.57,CA,1675824594
197,concepcion,-36.827,-73.0498,17.89,68,0,5.66,CL,1675824890
198,angoram,-4.0625,144.0661,29.92,67,99,2.24,PG,1675824891
199,kazachinskoye,57.6953,93.2761,-8.11,94,100,2.87,RU,1675824891
200,morondava,-20.2833,44.2833,24.87,86,99,2.59,MG,1675824892
201,laviana,43.2333,-5.5333,2.18,91,9,2.3,ES,1675824892
202,saint-pierre,-21.3393,55.4781,25.82,78,0,5.14,RE,1675824892
203,vila franca do campo,37.7167,-25.4333,13.23,78,92,4.52,PT,1675824872
204,vila velha,-20.3297,-40.2925,26.97,90,40,3.6,BR,1675824893
205,dalmau,26.0667,81.0333,16.37,55,0,3.59,IN,1675824893
206,chumphon,10.3333,98.8333,28.62,54,13,2.3,TH,1675824894
207,pilar,-9.5972,-35.9567,21.96,81,100,1.27,BR,1675824894
208,atambua,-9.1061,124.8925,27.82,71,48,1.95,ID,1675824600
209,tekkali,18.6167,84.2333,24.19,65,8,2.44,IN,1675824894
210,mariinsk,56.2139,87.7472,-12.88,93,100,3.39,RU,1675824895
211,moyale,3.5167,39.0584,19.53,41,1,3.25,KE,1675824896
212,antsohihy,-14.8796,47.9875,22.43,98,80,0.71,MG,1675824896
213,pisco,-13.7,-76.2167,24.03,83,0,5.14,PE,1675824696
214,eyl,7.9803,49.8164,24.96,71,100,5.78,SO,1675824897
215,la salle,41.3334,-89.0918,2.12,72,0,3.09,US,1675824897
216,biu,10.6129,12.1946,18.81,24,11,3.13,NG,1675824897
217,kavaratti,10.5669,72.642,26.6,71,93,5.48,IN,1675824845
218,boa vista,2.8197,-60.6733,26.99,69,40,5.66,BR,1675824898
219,mount gambier,-37.8333,140.7667,23.07,44,14,5.09,AU,1675824744
220,provost,52.3501,-110.2683,-2.75,97,100,1.22,CA,1675824611
221,petropavlovsk-kamchatskiy,53.0452,158.6483,-7.67,45,20,1.0,RU,1675824899
222,kirksville,40.1948,-92.5833,2.25,52,0,3.09,US,1675824899
223,kuytun,54.3419,101.5036,-16.19,94,100,1.75,RU,1675824900
224,lieksa,63.3167,30.0167,-0.37,98,100,2.72,FI,1675824900
225,farah,32.5,62.5,9.82,58,100,0.93,AF,1675824901
226,joensuu,62.6012,29.7632,-0.73,100,100,2.06,FI,1675824901
227,eureka,40.8021,-124.1637,11.48,85,99,0.89,US,1675824902
228,bathsheba,13.2167,-59.5167,23.34,94,40,5.14,BB,1675824767
229,labuhan,-6.8844,112.2051,25.55,86,100,3.14,ID,1675824904
230,barrhead,55.7992,-4.3929,7.25,88,75,5.66,GB,1675824909
231,safaga,26.7292,33.9365,13.48,51,100,7.01,EG,1675824864
232,padang,-0.9492,100.3543,28.03,56,86,1.13,ID,1675824198
233,caibarien,22.5206,-79.4669,22.62,76,33,8.39,CU,1675824785
234,walsall,52.5853,-1.984,3.25,91,1,0.45,GB,1675824910
235,ulan-ude,51.8261,107.6098,-24.06,77,20,0.0,RU,1675824911
236,villazon,-22.0866,-65.5942,9.72,69,91,4.69,BO,1675824690
237,vanimo,-2.6741,141.3028,25.35,95,100,3.72,PG,1675824913
238,grand-santi,4.25,-54.3833,21.82,99,42,1.1,GF,1675824913
239,cherskiy,68.75,161.3,-33.2,95,100,2.52,RU,1675824914
240,sandwick,60.0,-1.25,6.9,76,100,12.35,GB,1675824915
241,boshnyakovo,49.6333,142.1667,-14.62,83,88,2.7,RU,1675824917
242,kotli loharan,32.5883,74.4932,10.53,82,40,0.0,PK,1675824918
243,akron,41.0814,-81.519,5.48,79,100,3.09,US,1675824919
244,katima mulilo,-17.5,24.2667,18.2,96,98,1.18,NA,1675824920
245,mopti,14.6667,-4.0,25.26,15,63,3.44,ML,1675824922
246,iqaluit,63.7506,-68.5145,-34.15,68,40,2.06,CA,1675824707
247,mitchell,43.7094,-98.0298,0.99,75,0,3.6,US,1675824809
248,pandan,14.0453,124.1694,27.15,76,81,6.8,PH,1675824926
249,tromso,69.6496,18.957,4.01,70,100,11.83,NO,1675824827
250,muhos,64.808,25.9931,-4.12,97,32,2.07,FI,1675824936
251,ulladulla,-35.35,150.4667,20.06,81,100,1.34,AU,1675824791
252,tura,25.5198,90.2201,20.04,41,96,0.85,IN,1675824936
253,katsuura,35.1333,140.3,11.01,69,99,8.33,JP,1675824768
254,new norfolk,-42.7826,147.0587,16.72,32,5,2.03,AU,1675824937
255,norman wells,65.282,-126.8329,-22.98,77,75,0.0,CA,1675824695
256,poum,-20.2333,164.0167,26.76,85,100,7.1,NC,1675824937
257,ganta,7.3022,-8.5308,20.18,99,55,0.36,LR,1675824938
258,seymchan,62.8833,152.4333,-30.0,89,100,0.66,RU,1675824938
259,waingapu,-9.6567,120.2641,28.74,75,61,5.52,ID,1675824939
260,chivilcoy,-34.8957,-60.0167,23.36,31,0,3.44,AR,1675824939
261,noumea,-22.2763,166.4572,31.99,99,98,4.61,NC,1675824638
262,morant bay,17.8815,-76.4093,25.79,82,13,5.14,JM,1675824940
263,kamaishi,39.2667,141.8833,3.45,72,100,3.27,JP,1675824940
264,haines junction,60.7522,-137.5108,-3.03,80,31,2.06,CA,1675824854
265,quatre cocos,-20.2078,57.7625,26.16,80,38,6.88,MU,1675824940
266,toktogul,41.8708,72.9402,-5.45,59,70,1.12,KG,1675824941
267,lasa,46.6166,10.7002,-4.43,80,32,0.36,IT,1675824941
268,pyay,18.8167,95.2167,24.77,31,30,2.43,MM,1675824942
269,castro,-24.7911,-50.0119,16.39,95,71,2.35,BR,1675824942
270,stornoway,58.2093,-6.3865,7.98,79,100,17.49,GB,1675824942
271,leningradskiy,69.3833,178.4167,-31.38,95,100,2.18,RU,1675824827
272,touros,-5.1989,-35.4608,25.38,74,100,5.35,BR,1675824943
273,aksarka,66.5606,67.7975,-13.85,90,100,9.0,RU,1675824943
274,emba,48.8264,58.1442,-15.23,90,62,6.48,KZ,1675824944
275,shenjiamen,29.9576,122.298,9.75,77,92,5.1,CN,1675824944
276,laguna,38.421,-121.4238,12.05,74,79,1.0,US,1675824883
277,cabedelo,-6.9811,-34.8339,24.37,75,99,3.71,BR,1675824945
278,nehe,48.4833,124.8333,-15.44,81,99,1.54,CN,1675824945
279,basco,20.4487,121.9702,25.14,76,9,8.12,PH,1675824945
280,mizque,-17.941,-65.3402,16.13,92,89,0.75,BO,1675824946
281,neyshabur,36.2133,58.7958,6.45,77,34,1.73,IR,1675824946
282,berdigestyakh,62.0989,126.6992,-34.07,97,100,1.0,RU,1675824947
283,kyabram,-36.3167,145.05,29.93,24,0,1.96,AU,1675824947
284,saryg-sep,51.5,95.6,-19.52,96,99,0.86,RU,1675824933
285,jacksonville,30.3322,-81.6556,17.8,87,0,3.09,US,1675824819
286,abu samrah,35.3029,37.1841,2.32,79,68,1.99,SY,1675824948
287,sur,22.5667,59.5289,22.65,54,45,3.13,OM,1675824948
288,nanakuli,21.3906,-158.1547,26.97,59,75,5.14,US,1675824949
289,beloha,-25.1667,45.05,23.17,76,100,3.26,MG,1675824949
290,canton,23.1167,113.25,19.93,67,99,2.43,CN,1675824710
291,guane,22.2025,-84.0875,22.48,78,0,3.31,CU,1675824950
292,panguna,-6.3164,155.4848,27.92,57,52,2.45,PG,1675824950
293,adrar,20.5022,-10.0711,14.58,24,100,5.04,MR,1675824781
294,otane,-39.8833,176.6333,23.34,44,40,3.88,NZ,1675824951
295,kungurtug,50.5994,97.5228,-18.08,91,32,0.54,RU,1675824951
296,roald,62.5833,6.1333,8.08,49,84,10.8,NO,1675824952
297,kutum,14.2,24.6667,11.19,35,20,4.25,SD,1675824952
298,yekaterinoslavka,50.3734,129.1139,-21.64,82,57,1.91,RU,1675824952
299,flinders,-34.5833,150.8552,21.77,90,100,0.89,AU,1675824953
300,lavrentiya,65.5833,-171.0,-25.97,92,97,1.31,RU,1675824713
301,payyannur,12.1,75.2,25.17,72,78,0.89,IN,1675824953
302,virginia beach,36.8529,-75.978,11.12,72,75,4.63,US,1675824655
303,kirakira,-10.4544,161.9205,27.96,83,100,4.21,SB,1675824770
304,derzhavinsk,51.1,66.3167,-20.17,100,97,3.37,KZ,1675824954
305,shetpe,44.1667,52.1167,1.1,93,100,8.76,KZ,1675824954
306,gazanjyk,39.2446,55.5154,9.35,64,100,4.11,TM,1675824955
307,tigil,57.8,158.6667,-20.46,92,100,4.07,RU,1675824955
308,ust-kut,56.7938,105.7672,-12.18,94,100,1.67,RU,1675824955
309,fort-shevchenko,44.5086,50.263,0.57,91,100,13.05,KZ,1675824956
310,kavieng,-2.5744,150.7967,27.77,77,100,3.94,PG,1675824766
311,mongar,27.2747,91.2396,10.09,56,92,0.38,BT,1675824956
312,alpena,45.0617,-83.4327,2.28,77,100,2.06,US,1675824957
313,belmonte,-15.8631,-38.8828,25.27,78,25,3.65,BR,1675824744
314,tyup,42.7276,78.3648,-7.99,72,26,1.77,KG,1675824957
315,tieli,46.95,128.05,-12.82,84,93,1.56,CN,1675824958
316,mashhad,36.297,59.6062,8.08,71,75,2.06,IR,1675824958
317,okha,53.5739,142.9478,-23.0,80,100,4.65,RU,1675824959
318,wum,6.3833,10.0667,19.17,28,63,1.6,CM,1675824959
319,oeiras do para,-2.0031,-49.8544,22.97,98,100,1.33,BR,1675824959
320,qaqortoq,60.7167,-46.0333,-24.8,65,4,3.21,GL,1675824960
321,preobrazheniye,42.9019,133.9064,-2.62,40,6,3.33,RU,1675824797
322,ostrovnoy,68.0531,39.5131,-0.8,77,9,10.1,RU,1675824961
323,priargunsk,50.3691,119.1012,-24.79,100,99,0.34,RU,1675824961
324,buraydah,26.326,43.975,8.25,44,100,3.12,SA,1675824962
325,thompson,55.7435,-97.8558,-15.91,85,100,2.06,CA,1675824963
326,peterongan,-7.5394,112.2792,25.98,85,100,1.69,ID,1675824964
327,tilichiki,60.4667,166.1,-28.13,90,65,4.37,RU,1675824964
328,alice springs,-23.7,133.8833,33.75,40,40,6.17,AU,1675824966
329,ponta delgada,37.7333,-25.6667,13.4,82,40,5.14,PT,1675824966
330,komsomolskiy,40.4272,71.7189,-0.6,80,99,2.06,UZ,1675824971
331,sangar,63.9242,127.4739,-37.75,94,100,1.25,RU,1675824944
332,coihaique,-45.5752,-72.0662,16.97,67,75,1.03,CL,1675824972
333,belyy yar,53.6039,91.3903,-16.06,100,100,0.0,RU,1675824972
334,mayo,38.8876,-76.5119,9.26,81,20,3.6,US,1675824973
335,umm lajj,25.0213,37.2685,16.24,57,95,4.7,SA,1675824973
336,paita,-5.0892,-81.1144,24.12,82,77,3.56,PE,1675824974
337,lancaster,40.2504,-76.2499,4.17,79,100,1.54,US,1675824920
338,nuuk,64.1835,-51.7216,-13.4,78,100,2.24,GL,1675824975
339,kaitangata,-46.2817,169.8464,14.95,49,18,6.7,NZ,1675824734
340,kimbe,-5.5502,150.1429,25.65,94,100,2.28,PG,1675824976
341,zabaykalsk,49.6333,117.3167,-16.62,91,53,2.29,RU,1675824976
342,trairi,-3.2778,-39.2689,25.49,79,100,3.49,BR,1675824849
343,longyearbyen,78.2186,15.6401,-4.09,68,40,8.75,SJ,1675824977
344,palmer,42.1584,-72.3287,1.03,80,100,3.09,US,1675824978
345,kommunisticheskiy,61.6789,64.4819,-18.62,99,100,3.42,RU,1675824979
346,jensen beach,27.2545,-80.2298,22.25,69,75,4.47,US,1675824981
347,broken hill,-31.95,141.4333,30.76,15,0,5.27,AU,1675824983
348,tual,-5.6667,132.75,27.7,77,99,9.5,ID,1675824984
349,nhulunbuy,-12.2333,136.7667,30.34,74,75,2.57,AU,1675824986
350,sungaipenuh,-2.0833,101.3833,26.13,38,72,1.74,ID,1675824986
351,irece,-11.3042,-41.8558,21.22,61,96,2.7,BR,1675824988
352,buenaventura,3.8801,-77.0312,24.49,94,71,1.22,CO,1675824990
353,ormara,25.2088,64.6357,20.98,65,2,1.73,PK,1675824991
354,ahipara,-35.1667,173.1667,22.13,56,28,4.2,NZ,1675824992
355,arrecife,28.963,-13.5477,12.99,76,0,0.0,ES,1675824992
356,staraya mayna,54.6,48.95,-19.94,100,92,1.21,RU,1675824993
357,vallejo,38.1041,-122.2566,12.97,74,0,0.45,US,1675824993
358,kharp,66.8014,65.8081,-15.71,97,100,3.71,RU,1675824994
359,point pedro,9.8167,80.2333,26.05,78,56,4.97,LK,1675824994
360,la reforma,25.0833,-108.05,17.58,36,100,5.17,MX,1675824995
361,sacramento,38.4666,-121.3177,12.21,75,77,0.45,US,1675824172
362,dalnerechensk,45.9339,133.7225,-13.94,84,65,1.87,RU,1675824996
363,severo-yeniseyskiy,60.3725,93.0408,-13.39,96,100,1.65,RU,1675824997
364,quattro castella,44.635,10.4743,-2.29,65,2,0.11,IT,1675824997
365,plettenberg bay,-34.0527,23.3716,19.16,85,100,2.89,ZA,1675824998
366,kaabong,3.4836,34.1492,19.59,40,2,2.25,UG,1675824998
367,antalaha,-14.9003,50.2788,22.91,90,99,2.28,MG,1675824998
368,kudat,6.8837,116.8477,26.96,89,20,1.54,MY,1675824946
369,zhangzhou,24.5133,117.6556,17.96,71,75,2.0,CN,1675824999
370,pitea,65.3172,21.4794,-1.95,78,100,4.14,SE,1675824999
371,celestun,20.8667,-90.4,25.88,67,22,5.95,MX,1675825000
372,general pico,-35.6566,-63.7568,27.08,28,67,3.05,AR,1675825000
373,launceston,-41.45,147.1667,24.23,47,40,3.09,AU,1675825000
374,uitenhage,-33.7576,25.3971,19.24,87,100,2.19,ZA,1675825001
375,karratha,-20.7377,116.8463,35.07,37,42,4.51,AU,1675825001
376,ballina,-28.8667,153.5667,27.66,67,99,4.08,AU,1675824727
377,kahului,20.8947,-156.47,26.01,75,40,10.29,US,1675824753
378,te anau,-45.4167,167.7167,13.96,47,46,5.65,NZ,1675825002
379,honningsvag,70.9821,25.9704,1.86,64,58,7.72,NO,1675825002
380,rabo de peixe,37.8,-25.5833,12.73,82,40,5.14,PT,1675824849
381,acapulco,16.8634,-99.8901,24.53,76,2,2.33,MX,1675824800
382,labuan,5.2767,115.2417,28.2,83,20,3.09,MY,1675825004
383,yerbogachen,61.2767,108.0108,-25.82,99,99,0.98,RU,1675825004
384,vadlapudi,14.3167,79.8,23.32,73,15,1.52,IN,1675825004
385,altamont,42.2068,-121.7372,5.91,61,75,4.63,US,1675825005
386,tarbagatay,51.4803,107.3602,-24.26,93,74,1.57,RU,1675825005
387,moree,-29.4667,149.85,31.77,31,65,3.85,AU,1675825005
388,campeche,19.0,-90.5,24.02,75,4,2.81,MX,1675824613
389,caucaia,-3.7361,-38.6531,27.24,76,40,4.12,BR,1675825006
390,koumac,-20.5667,164.2833,26.17,87,100,3.53,NC,1675825006
391,acarau,-2.8856,-40.12,25.33,84,100,3.5,BR,1675825007
392,turukhansk,65.8167,87.9833,-16.71,97,100,2.45,RU,1675825008
393,isangel,-19.55,169.2667,27.6,77,93,1.47,VU,1675825008
394,pasni,25.2631,63.471,21.02,61,2,2.28,PK,1675825008
395,cariati,39.4922,16.9594,4.64,65,99,5.49,IT,1675825009
396,slave lake,55.2834,-114.769,-5.01,74,0,1.03,CA,1675824946
397,san marcos,33.1434,-117.1661,14.9,52,0,1.54,US,1675824466
398,iwaki,37.05,140.8833,8.9,57,72,1.34,JP,1675825009
399,aklavik,68.2191,-135.0107,-29.05,96,100,3.42,CA,1675824801
400,comodoro rivadavia,-45.8667,-67.5,20.92,32,0,3.09,AR,1675825010
401,tucurui,-3.7661,-49.6725,23.14,96,100,1.5,BR,1675825010
402,kapit,2.0167,112.9333,31.32,58,86,0.51,MY,1675824877
403,dudinka,69.4058,86.1778,-24.1,100,95,2.07,RU,1675825011
404,lamar,33.6668,-95.5836,10.95,97,100,5.66,US,1675825011
405,oda,35.1833,132.5,9.43,58,43,5.91,JP,1675825011
406,estelle,29.8458,-90.1067,20.0,90,80,1.34,US,1675825012
407,alofi,-19.0595,-169.9187,27.94,78,75,4.63,NU,1675824758
408,fort oglethorpe,34.949,-85.2569,14.58,72,40,0.45,US,1675825012
409,avera,33.194,-82.5271,9.39,59,66,1.81,US,1675825013
410,aswan,24.0934,32.907,10.61,50,0,2.57,EG,1675824844
411,isabela,6.7085,121.9711,29.03,65,99,2.86,PH,1675825013
412,a coruna,43.3713,-8.396,6.61,69,0,1.79,ES,1675825014
413,sola,-13.8833,167.55,27.85,77,96,6.44,VU,1675825014
414,westport,41.1415,-73.3579,5.99,84,100,1.54,US,1675824660
415,victor harbor,-35.5667,138.6167,33.16,72,21,0.45,AU,1675824689
416,nabire,-3.3667,135.4833,26.35,79,100,1.31,ID,1675825015
417,arman,59.7,150.1667,-24.44,75,33,3.43,RU,1675825015
418,bonavista,48.6499,-53.1147,-3.84,69,92,9.85,CA,1675825015
419,shiyan,32.6475,110.7781,6.62,88,100,3.23,CN,1675825016
420,manacapuru,-3.2997,-60.6206,23.88,93,100,1.55,BR,1675825016
421,chicama,-7.8447,-79.1469,22.3,75,53,2.1,PE,1675825017
422,balkanabat,39.5108,54.3671,8.16,71,100,4.51,TM,1675825017
423,kumylzhenskaya,49.8809,42.5898,-12.79,91,6,5.42,RU,1675825018
424,nizwa,22.9333,57.5333,18.67,46,13,0.45,OM,1675825018
425,byron bay,-28.65,153.6167,27.62,59,90,4.36,AU,1675824729
426,los llanos de aridane,28.6585,-17.9182,11.86,62,0,2.57,ES,1675825019
427,muroto,33.2833,134.15,13.0,56,9,2.14,JP,1675825020
428,anaco,9.4389,-64.4728,23.98,71,26,3.0,VE,1675825020
429,upernavik,72.7868,-56.1549,-30.39,95,47,1.81,GL,1675825020
430,meulaboh,4.1363,96.1285,27.67,69,84,0.41,ID,1675824880
431,juliaca,-15.5,-70.1333,3.61,98,100,4.2,PE,1675825021
432,deputatskiy,69.3,139.9,-41.26,98,53,1.59,RU,1675825022
433,dillon,34.4166,-79.3712,11.73,76,24,2.95,US,1675824917
434,antofagasta,-23.65,-70.4,21.6,81,100,2.1,CL,1675825025
435,bundaberg,-24.85,152.35,30.12,60,66,2.24,AU,1675825026
436,cedar city,37.6775,-113.0619,-1.45,80,0,2.57,US,1675824889
437,nemuro,43.3236,145.575,-3.23,57,28,1.74,JP,1675824748
438,sai buri,6.7013,101.6168,25.84,75,38,3.73,TH,1675825029
439,patacamaya,-17.2333,-67.9167,7.13,90,95,3.18,BO,1675825030
440,dicabisagan,17.0818,122.4157,25.01,85,95,4.22,PH,1675825032
441,aitape,-3.1374,142.3475,25.63,92,100,4.52,PG,1675825033
442,klaksvik,62.2266,-6.589,7.72,83,100,25.19,FO,1675825034
443,inhambane,-23.865,35.3833,25.29,88,7,2.62,MZ,1675825035
444,chambas,22.1928,-78.9136,22.87,76,4,5.67,CU,1675825037
445,tiarei,-17.5333,-149.3333,30.01,63,2,2.2,PF,1675825040
446,leh,34.1667,77.5833,-18.06,65,10,1.07,IN,1675824789
447,erzin,36.9559,36.2,0.98,58,97,2.03,TR,1675825042
448,lebu,-37.6167,-73.65,14.88,88,0,7.79,CL,1675825043
449,arya,33.6,73.0667,10.69,76,84,1.63,PK,1675825045
450,oranjemund,-28.55,16.4333,17.4,90,99,6.87,NA,1675825054
451,petatlan,17.5167,-101.2667,22.32,79,0,1.52,MX,1675825054
452,omboue,-1.5746,9.2618,24.94,89,100,2.38,GA,1675825054
453,madang,-5.2246,145.7966,30.28,67,95,2.17,PG,1675825055
454,hovd,48.0056,91.6419,-16.01,76,98,0.18,MN,1675825055
455,severo-kurilsk,50.6789,156.125,-3.94,55,15,4.28,RU,1675825056
456,katherine,-14.4667,132.2667,34.18,49,61,2.06,AU,1675825056
457,truro,50.2653,-5.0544,3.6,87,1,3.09,GB,1675825057
458,rassvet,46.8333,40.75,-7.56,77,95,8.0,RU,1675825057
459,katobu,-4.9408,122.5276,30.74,57,71,3.08,ID,1675825057
460,ankang,32.68,109.0172,6.88,88,100,2.56,CN,1675825058
461,barsovo,61.1667,73.1667,-30.55,100,57,1.87,RU,1675825058
462,morden,49.1919,-98.1014,2.92,65,100,8.75,CA,1675825059
463,dukat,62.55,155.55,-34.16,95,76,1.63,RU,1675825059
464,siniscola,40.5719,9.6922,8.75,63,98,3.27,IT,1675825060
465,waupun,43.6333,-88.7296,0.78,92,7,3.58,US,1675825060
466,aden,12.7794,45.0367,24.35,68,13,4.53,YE,1675824892
467,fuyu,45.1833,124.8167,-8.66,62,2,3.32,CN,1675825061
468,surskoye,54.4821,46.7214,-21.03,100,100,0.87,RU,1675825061
469,otse,-25.0167,25.7333,17.44,85,100,1.13,BW,1675825061
470,kirkuk,35.4681,44.3922,6.19,77,99,2.27,IQ,1675825062
471,san cristobal,7.7669,-72.225,21.1,78,12,0.78,VE,1675825062
472,talakan,50.3167,130.3667,-20.1,75,12,2.4,RU,1675825062
473,nagutskoye,44.4415,42.8762,-8.88,96,100,2.5,RU,1675825063
474,cockburn town,21.4612,-71.1419,25.49,74,0,10.53,TC,1675824796
475,bastia,42.6667,9.3333,6.83,69,75,2.57,FR,1675825063
476,ivot,53.6756,34.1872,-13.4,98,66,0.62,RU,1675825064
477,lethem,3.3803,-59.7968,25.3,74,31,4.96,GY,1675825064
478,rio gallegos,-51.6226,-69.2181,14.03,77,0,9.26,AR,1675825064
479,itaituba,-4.2761,-55.9836,23.12,99,100,0.5,BR,1675825065
480,okitipupa,6.5047,4.7839,24.21,91,52,0.72,NG,1675825065
481,togur,58.3631,82.8265,-17.66,98,93,2.53,RU,1675825066
482,brigantine,39.4101,-74.3646,5.64,88,0,3.09,US,1675825066
483,sao gabriel da cachoeira,-0.1303,-67.0892,22.53,98,100,0.53,BR,1675825066
484,lata,40.1629,-8.3327,8.93,82,31,2.44,PT,1675825067
485,dunedin,-45.8742,170.5036,16.25,46,71,7.92,NZ,1675825067
486,mantua,45.1667,10.7833,-1.14,74,0,1.12,IT,1675825068
487,findlay,41.0442,-83.6499,4.36,89,0,1.54,US,1675825068
488,biltine,14.5333,20.9167,19.26,24,94,7.66,TD,1675825068
489,marawi,7.9986,124.2928,25.77,56,72,2.26,PH,1675825069
490,codrington,-38.2667,141.9667,19.2,58,80,6.74,AU,1675825069
491,dwarka,22.2394,68.9678,21.33,67,36,3.86,IN,1675825069
492,sorong,-0.8833,131.25,26.95,80,100,2.24,ID,1675825070
493,krasnoselkup,65.7,82.4667,-31.51,100,100,2.12,RU,1675824824
494,pitimbu,-7.4706,-34.8086,24.33,74,99,3.98,BR,1675825070
495,qingyuan,23.7,113.0333,18.99,88,100,0.63,CN,1675825071
496,kolyshley,52.7005,44.5367,-16.7,97,11,2.89,RU,1675825071
497,qasigiannguit,68.8193,-51.1922,-29.06,99,99,1.22,GL,1675825071
498,tanete,-3.9443,119.7848,31.1,57,96,3.79,ID,1675825072
499,jiayuguan,39.8167,98.3,-1.49,52,68,0.62,CN,1675825072
500,akom,2.6678,12.7109,18.28,95,80,1.19,CM,1675825073
501,misratah,32.3754,15.0925,13.01,64,99,6.68,LY,1675825073
502,coronel martinez,-25.75,-56.6167,24.35,44,0,2.09,PY,1675825073
503,rumphi,-11.0186,33.8575,17.53,93,100,0.84,MW,1675825074
504,saint-georges,12.0564,-61.7485,24.64,82,92,6.15,GD,1675824825
505,mainpuri,27.2333,79.0167,14.61,50,0,2.98,IN,1675825074
506,inongo,-1.95,18.2667,22.87,82,60,2.79,CD,1675825074
507,katangli,51.7102,143.2326,-16.45,88,100,5.2,RU,1675825075
508,paamiut,61.994,-49.6678,-18.06,78,84,5.48,GL,1675825075
509,cayenne,4.9333,-52.3333,25.02,88,20,2.06,GF,1675825076
510,berlevag,70.8578,29.0864,2.0,75,20,9.77,NO,1675825076
511,ola,59.5833,151.2833,-24.37,77,38,3.55,RU,1675825076
512,tautira,-17.7333,-149.15,26.78,60,5,1.94,PF,1675825077
513,tabou,4.423,-7.3528,25.88,86,100,2.7,CI,1675825077
514,lorengau,-2.0226,147.2712,25.71,92,100,8.61,PG,1675824826
515,qinhuangdao,39.9317,119.5883,1.95,33,0,1.88,CN,1675825078
516,tuy hoa,13.0833,109.3,26.3,77,37,2.34,VN,1675825078
517,auki,-8.7676,160.7034,29.34,71,98,2.93,SB,1675825078
518,santa cruz,-17.8,-63.1667,23.7,88,100,2.57,BO,1675825079
519,matamoros,25.5333,-103.25,20.06,25,46,2.43,MX,1675825079
520,brae,60.3964,-1.353,6.8,73,100,13.76,GB,1675824857
521,mudhol,16.35,75.2833,24.91,40,100,2.85,IN,1675824759
522,genhe,50.7833,121.5167,-17.95,89,96,1.38,CN,1675825080
523,honiara,-9.4333,159.95,29.22,72,100,2.9,SB,1675825080
524,peterhead,57.5058,-1.7981,3.58,80,94,11.25,GB,1675825081
525,lupiro,-8.3833,36.6667,21.63,98,100,1.06,TZ,1675825081
526,murray bridge,-35.1167,139.2667,32.97,27,2,3.48,AU,1675825081
527,karaton,-6.3424,106.1045,25.72,82,100,1.2,ID,1675825082
528,shingu,33.7333,135.9833,15.03,35,5,2.47,JP,1675825082
529,suoyarvi,62.0833,32.35,-1.21,97,100,3.29,RU,1675825083
530,tsiroanomandidy,-18.7667,46.0333,18.56,90,100,1.58,MG,1675825083
531,goderich,43.7501,-81.7165,2.18,87,100,5.14,CA,1675825084
532,thurso,58.5927,-3.5259,6.59,70,100,7.35,GB,1675825084
533,asau,46.4333,26.4,-5.49,96,98,2.16,RO,1675825084
534,gadarwara,22.9167,78.7833,18.37,26,1,1.01,IN,1675825085
535,singaraja,-8.112,115.0882,27.54,80,99,2.98,ID,1675825085
536,la ronge,55.1001,-105.2842,-0.86,47,0,4.63,CA,1675824801
537,mana,5.6592,-53.7767,24.16,89,46,4.2,GF,1675824827
538,barwadih,23.8333,84.1167,20.49,34,0,2.08,IN,1675825086
539,armeria,18.9333,-103.9667,22.14,88,25,1.05,MX,1675825086
540,itarema,-2.9248,-39.9167,25.29,82,100,3.71,BR,1675825086
541,coahuayana,18.7333,-103.6833,21.81,91,18,1.05,MX,1675825087
542,zhigansk,66.7697,123.3711,-43.58,97,100,2.93,RU,1675825087
543,mumford,5.2618,-0.759,25.5,91,58,3.16,GH,1675825087
544,samana,19.2056,-69.3369,22.65,87,17,4.61,DO,1675825088
545,rawson,-43.3002,-65.1023,18.45,60,2,2.14,AR,1675825088
546,fereydun kenar,36.6864,52.5225,11.12,87,100,1.03,IR,1675825089
547,rocha,-34.4833,-54.3333,20.67,82,28,3.43,UY,1675825089
548,lichinga,-13.3128,35.2406,15.8,95,99,1.48,MZ,1675825090
549,bridlington,54.0831,-0.1919,5.96,88,15,4.48,GB,1675825090
550,fairbanks,64.8378,-147.7164,-14.67,79,100,0.0,US,1675824984
551,maniitsoq,65.4167,-52.9,-17.28,91,100,4.53,GL,1675825090
552,xai-xai,-25.0519,33.6442,22.96,95,79,2.26,MZ,1675824911
553,saint-francois,46.4154,3.9054,-5.74,93,1,1.54,FR,1675825091
554,flin flon,54.7682,-101.865,-4.76,88,15,3.17,CA,1675825091
555,emod,47.9333,20.8167,-1.67,73,90,5.48,HU,1675825092
556,sakaiminato,35.55,133.2333,9.99,76,75,5.14,JP,1675825092
557,falmouth,50.1544,-5.0711,3.5,87,1,2.06,GB,1675825092
558,nome,64.5011,-165.4064,-21.96,77,0,0.0,US,1675825093
559,balakhninskiy,58.0106,114.2769,-19.3,98,100,0.89,RU,1675825093
560,zhuji,29.7188,120.2423,7.75,82,100,2.6,CN,1675825093
561,henties bay,-22.116,14.2845,17.96,90,43,2.46,NA,1675824880
562,bahir dar,11.5936,37.3908,16.3,45,2,1.51,ET,1675825094
563,havelock,34.8791,-76.9013,13.99,72,0,2.57,US,1675825095
564,barra do garcas,-15.89,-52.2567,23.08,86,52,0.38,BR,1675825095
565,gazli,40.1333,63.45,7.02,60,100,5.83,UZ,1675825096
566,kanker,20.2719,81.4931,22.98,28,4,1.17,IN,1675825096
567,altar,30.7,-111.8167,13.84,23,0,4.08,MX,1675825097
568,hofn,64.2539,-15.2082,0.47,60,100,8.18,IS,1675825091
569,margate,51.3813,1.3862,4.13,68,63,1.28,GB,1675825097
570,bend,44.0582,-121.3153,5.92,76,0,4.63,US,1675824952
571,burgos,42.3394,-3.7079,0.23,100,100,6.17,ES,1675825098
572,wajima,37.4,136.9,4.38,100,75,1.03,JP,1675825098
573,elmira,42.0898,-76.8077,5.45,86,40,3.09,US,1675825099
574,shelburne,44.0787,-80.2041,1.42,95,100,5.57,CA,1675825099
575,sioux falls,43.55,-96.7003,-1.08,80,0,0.0,US,1675824841
576,kruisfontein,-34.0033,24.7314,18.27,83,100,1.97,ZA,1675825099
