City_ID,City,Lat,Lng,Max Temp,Humidity,Cloudiness,Wind Speed,Country,Date
0,tasiilaq,65.6145,-37.6368,-4.91,96,100,2.03,GL,1675639615
1,castro,-24.7911,-50.0119,18.62,78,56,2.45,BR,1675639571
2,busselton,-33.65,115.3333,20.07,75,26,4.64,AU,1675639789
3,soyo,-6.1349,12.3689,25.76,84,88,2.38,AO,1675639827
4,rikitea,-23.1203,-134.9692,26.17,74,3,6.78,PF,1675639557
5,avarua,-21.2078,-159.775,28.03,83,75,5.66,CK,1675639555
6,jamestown,42.097,-79.2353,5.8,60,100,6.17,US,1675639463
7,mehamn,71.0357,27.8492,2.97,87,75,10.8,NO,1675639828
8,ponta do sol,32.6667,-17.1,16.35,52,34,2.13,PT,1675639642
9,kahului,20.8947,-156.47,27.01,72,40,10.29,US,1675639699
10,bluff,-46.6,168.3333,14.73,85,55,11.08,NZ,1675639541
11,gavrilovka vtoraya,52.877,42.7663,-11.96,97,84,2.27,RU,1675639829
12,faanui,-16.4833,-151.75,27.5,74,16,6.83,PF,1675639615
13,manta,-0.95,-80.7333,28.88,70,75,3.6,EC,1675639810
14,mount gambier,-37.8333,140.7667,16.89,63,36,2.27,AU,1675639645
15,chokurdakh,70.6333,147.9167,-41.14,100,66,0.51,RU,1675639638
16,jalu,29.0331,21.5482,10.97,50,16,5.48,LY,1675639831
17,mungwi,-10.1732,31.3694,15.6,97,99,1.62,ZM,1675639831
18,beringovskiy,63.05,179.3167,-28.13,93,98,5.37,RU,1675639592
19,belmonte,-15.8631,-38.8828,26.3,80,1,4.32,BR,1675639832
20,tselinnoye,53.0833,85.6667,-20.88,100,83,1.95,RU,1675639832
21,srandakan,-7.9386,110.2506,25.47,84,93,1.41,ID,1675639832
22,georgetown,5.4112,100.3354,25.96,98,20,1.03,MY,1675639400
23,murgab,37.4966,61.9714,2.93,81,60,3.09,TM,1675639583
24,mar del plata,-38.0023,-57.5575,28.01,47,0,4.63,AR,1675639574
25,hobyo,5.3505,48.5268,24.65,78,32,7.41,SO,1675639727
26,saint-philippe,-21.3585,55.7679,25.77,86,100,4.84,RE,1675639660
27,avera,33.194,-82.5271,13.73,77,46,1.95,US,1675639629
28,ayr,55.4627,-4.6339,6.39,81,75,2.57,GB,1675639834
29,awjilah,29.1081,21.2869,11.56,47,22,5.66,LY,1675639835
30,vestmannaeyjar,63.4427,-20.2734,6.33,76,100,15.7,IS,1675639737
31,butaritari,3.0707,172.7902,26.7,84,100,8.03,KI,1675639543
32,krasnokamensk,50.0979,118.0369,-29.5,100,87,1.42,RU,1675639836
33,newport,51.5877,-2.9984,2.51,87,78,0.29,GB,1675639669
34,hobart,-42.8794,147.3294,19.92,52,40,7.72,AU,1675639427
35,cape town,-33.9258,18.4232,22.99,75,0,7.15,ZA,1675639548
36,hithadhoo,-0.6,73.0833,27.01,70,86,4.3,MV,1675639654
37,barrow,71.2906,-156.7887,-27.99,83,100,0.0,US,1675639548
38,atuona,-9.8,-139.0333,25.86,78,44,8.52,PF,1675639544
39,kemijarvi,66.7131,27.4306,-8.83,97,100,0.92,FI,1675639837
40,thinadhoo,0.5333,72.9333,27.05,69,100,3.32,MV,1675639838
41,tamandare,-8.7597,-35.1047,26.21,82,17,3.36,BR,1675639776
42,lagoa,39.05,-27.9833,15.13,84,99,4.54,PT,1675639689
43,qaanaaq,77.484,-69.3632,-18.35,55,5,2.97,GL,1675639547
44,kurumkan,54.3,110.3,-21.63,95,73,1.67,RU,1675639839
45,bredasdorp,-34.5322,20.0403,20.9,85,100,4.07,ZA,1675639542
46,zheleznogorsk,52.331,35.3711,-6.25,96,91,3.24,RU,1675639839
47,baiquan,47.5833,126.0833,-22.23,100,68,2.63,CN,1675639840
48,berbera,10.4396,45.0143,23.11,69,100,2.25,SO,1675639840
49,nome,64.5011,-165.4064,-8.96,79,75,1.54,US,1675639572
50,hole narsipur,12.7828,76.2431,17.28,62,41,1.29,IN,1675639841
51,thompson,55.7435,-97.8558,-13.91,85,100,1.54,CA,1675639640
52,narsaq,60.9167,-46.05,-7.88,73,100,7.55,GL,1675639566
53,kogon,39.7228,64.5517,2.02,75,0,4.12,UZ,1675639841
54,port alfred,-33.5906,26.891,22.32,95,51,4.52,ZA,1675639545
55,abu kamal,34.4506,40.9171,11.43,50,84,5.1,SY,1675639669
56,nueva guinea,11.6876,-84.4562,22.51,80,5,5.17,NI,1675639842
57,puerto ayora,-0.7393,-90.3518,26.97,91,35,3.58,EC,1675639558
58,ilebo,-4.3167,20.5833,20.78,96,67,0.52,CD,1675639842
59,aripuana,-9.1667,-60.6333,22.83,97,66,0.55,BR,1675639843
60,cidreira,-30.1811,-50.2056,23.78,76,64,4.39,BR,1675639538
61,geraldton,-28.7667,114.6,23.23,73,100,5.14,AU,1675639583
62,tuktoyaktuk,69.4541,-133.0374,-43.0,66,40,2.06,CA,1675639714
63,constitucion,-35.3333,-72.4167,15.06,93,16,2.55,CL,1675639844
64,punta arenas,-53.15,-70.9167,11.06,62,0,7.2,CL,1675639552
65,kapaa,22.0752,-159.319,27.18,79,40,6.69,US,1675639577
66,cabo san lucas,22.8909,-109.9124,27.56,31,0,4.63,MX,1675639567
67,ushuaia,-54.8,-68.3,7.81,57,40,13.89,AR,1675639845
68,rocha,-34.4833,-54.3333,19.04,80,0,2.47,UY,1675639700
69,vardo,70.3705,31.1107,-7.01,93,100,11.83,NO,1675639705
70,hermanus,-34.4187,19.2345,21.0,87,89,5.01,ZA,1675639543
71,yulara,-25.2406,130.9889,24.0,17,0,4.81,AU,1675639645
72,williams lake,52.1415,-122.1445,6.76,60,75,4.63,CA,1675639840
73,puerto escondido,15.85,-97.0667,28.46,61,20,2.57,MX,1675639846
74,dikson,73.5069,80.5464,-19.1,97,100,0.74,RU,1675639539
75,port blair,11.6667,92.75,25.02,88,40,0.0,IN,1675639847
76,port hardy,50.6996,-127.4199,7.1,81,75,2.06,CA,1675639534
77,kulhudhuffushi,6.6221,73.07,26.59,75,42,0.94,MV,1675639847
78,tiksi,71.6872,128.8694,-32.35,100,100,1.63,RU,1675639616
79,gat,31.61,34.7642,13.55,3,93,6.57,IL,1675639563
80,vaini,-21.2,-175.2,28.09,74,75,1.03,TO,1675639561
81,leh,34.1667,77.5833,-14.61,74,100,1.1,IN,1675639848
82,victoria,22.2855,114.1577,19.97,88,95,1.79,HK,1675639190
83,bengkulu,-3.8004,102.2655,23.18,87,95,3.45,ID,1675639404
84,port elizabeth,-33.918,25.5701,24.5,93,75,6.17,ZA,1675639576
85,cherskiy,68.75,161.3,-41.29,100,100,2.06,RU,1675639542
86,xiaoweizhai,26.1903,107.5125,7.37,96,100,0.69,CN,1675639849
87,katsuura,35.1333,140.3,8.74,76,3,3.58,JP,1675639411
88,vilyuysk,63.7553,121.6247,-47.53,100,79,1.72,RU,1675639849
89,albany,42.6001,-73.9662,5.03,55,95,2.22,US,1675639303
90,saint george,37.1041,-113.5841,11.33,62,100,8.75,US,1675639574
91,nalut,30.3333,10.85,8.32,66,78,3.66,LY,1675639850
92,flic en flac,-20.2742,57.3631,26.31,82,96,4.1,MU,1675639851
93,jutai,-5.1833,-68.9,22.56,98,99,0.42,BR,1675639851
94,iskateley,67.6803,53.1512,-18.26,99,96,3.49,RU,1675639851
95,wajid,3.8093,43.2471,21.93,49,45,5.91,SO,1675639852
96,carnarvon,-24.8667,113.6333,24.84,73,2,6.8,AU,1675639573
97,mataura,-46.1927,168.8643,16.01,75,90,5.66,NZ,1675639558
98,chumikan,54.7183,135.315,-23.6,91,53,7.05,RU,1675639853
99,saskylakh,71.9167,114.0833,-41.6,100,94,1.84,RU,1675639604
100,new norfolk,-42.7826,147.0587,19.72,59,99,1.34,AU,1675639614
101,uvat,59.1433,68.8953,-17.57,99,100,0.91,RU,1675639853
102,kruisfontein,-34.0033,24.7314,23.27,87,76,3.54,ZA,1675639665
103,nuuk,64.1835,-51.7216,-11.18,85,100,2.68,GL,1675639581
104,touros,-5.1989,-35.4608,26.74,75,79,4.97,BR,1675639696
105,kokoda,-8.8785,147.7407,26.42,85,100,0.24,PG,1675639854
106,mitsamiouli,-11.3847,43.2844,27.34,79,100,4.25,KM,1675639775
107,medicine hat,50.0501,-110.6683,6.24,64,75,7.2,CA,1675639594
108,iquique,-20.2208,-70.1431,25.02,80,76,1.61,CL,1675639854
109,sao felix do xingu,-6.6447,-51.995,24.01,84,81,1.12,BR,1675639855
110,anadyr,64.75,177.4833,-30.56,74,75,6.0,RU,1675639758
111,ahuimanu,21.4447,-157.8378,27.84,75,40,9.26,US,1675639855
112,pisco,-13.7,-76.2167,25.03,78,0,7.72,PE,1675639595
113,margate,51.3813,1.3862,5.39,86,73,1.79,GB,1675639780
114,mahebourg,-20.4081,57.7,26.16,89,75,2.57,MU,1675639565
115,ribeira grande,38.5167,-28.7,16.54,90,100,4.47,PT,1675639564
116,saldanha,-33.0117,17.9442,18.03,93,17,7.05,ZA,1675639608
117,praia,14.9215,-23.5087,20.3,68,40,10.8,CV,1675639856
118,lasa,46.6166,10.7002,1.49,92,56,2.65,IT,1675639560
119,severo-kurilsk,50.6789,156.125,-3.22,78,98,3.33,RU,1675639538
120,nhulunbuy,-12.2333,136.7667,29.34,74,75,3.09,AU,1675639746
121,chuy,-33.6971,-53.4616,19.88,77,0,3.48,UY,1675639540
122,hof,50.3167,11.9167,-2.53,91,75,2.57,DE,1675639857
123,manjeshwar,12.7194,74.8861,24.53,88,13,2.0,IN,1675639858
124,porto novo,6.4965,2.6036,26.93,85,100,3.98,BJ,1675639630
125,tabou,4.423,-7.3528,26.32,86,97,3.69,CI,1675639858
126,asau,46.4333,26.4,-4.29,93,100,4.11,RO,1675639664
127,klaksvik,62.2266,-6.589,9.51,93,100,15.44,FO,1675639618
128,grindavik,63.8424,-22.4338,4.26,60,75,19.55,IS,1675639733
129,belyy yar,53.6039,91.3903,-23.97,79,40,0.0,RU,1675639739
130,vila franca do campo,37.7167,-25.4333,15.23,82,67,3.47,PT,1675639688
131,overyata,58.0868,55.8709,-10.93,98,100,1.26,RU,1675639859
132,shahr-e babak,30.1165,55.1186,4.53,55,33,2.81,IR,1675639860
133,roald,62.5833,6.1333,6.16,81,100,7.2,NO,1675639861
134,arkansas city,37.062,-97.0384,17.79,25,0,2.06,US,1675639861
135,makakilo city,21.3469,-158.0858,27.18,63,20,9.26,US,1675639689
136,boa vista,2.8197,-60.6733,25.99,78,20,3.09,BR,1675639862
137,khatanga,71.9667,102.5,-37.12,99,57,2.89,RU,1675639667
138,sao filipe,14.8961,-24.4956,21.27,63,96,7.7,CV,1675639749
139,yellowknife,62.456,-114.3525,-20.25,77,100,6.17,CA,1675639301
140,verkhoyansk,67.5447,133.385,-39.03,100,99,0.77,RU,1675639773
141,kuryk,43.2,51.65,1.49,69,62,5.46,KZ,1675639865
142,ipameri,-17.7219,-48.1597,21.53,89,100,0.81,BR,1675639866
143,kochki,54.3358,80.4806,-19.41,99,92,2.52,RU,1675639866
144,smithers,54.7804,-127.1743,3.18,60,75,4.63,CA,1675639867
145,kaitangata,-46.2817,169.8464,18.86,61,68,7.75,NZ,1675639614
146,cap malheureux,-19.9842,57.6142,25.82,80,74,2.68,MU,1675639594
147,roseburg,43.2165,-123.3417,10.1,75,75,3.09,US,1675639830
148,valenca,-13.3703,-39.0731,23.38,91,1,1.4,BR,1675639868
149,arraial do cabo,-22.9661,-42.0278,25.18,89,46,2.37,BR,1675639593
150,hit,33.6416,42.8251,12.28,52,100,5.06,IQ,1675639869
151,nytva,57.9404,55.334,-11.06,98,100,1.65,RU,1675639869
152,sant feliu de guixols,41.7833,3.0333,11.06,30,24,4.73,ES,1675639870
153,norman wells,65.282,-126.8329,-25.98,70,100,0.0,CA,1675639747
154,noumea,-22.2763,166.4572,32.99,99,86,2.93,NC,1675639288
155,olafsvik,64.8945,-23.7142,3.58,80,100,19.4,IS,1675639787
156,virginia beach,36.8529,-75.978,12.02,46,100,2.06,US,1675639719
157,cochrane,51.1834,-114.4687,6.58,52,0,7.72,CA,1675639630
158,imperial,33.0334,-115.4175,24.32,31,0,7.28,US,1675639873
159,tazovskiy,67.4667,78.7,-22.84,100,93,3.16,RU,1675639874
160,nikolskoye,59.7035,30.7861,-4.0,93,100,3.56,RU,1675639549
161,krasnoselkup,65.7,82.4667,-25.89,100,93,2.08,RU,1675639875
162,yerbogachen,61.2767,108.0108,-36.84,100,99,1.09,RU,1675639876
163,opunake,-39.4556,173.8583,23.95,75,7,5.98,NZ,1675639878
164,angul,20.85,85.1,13.99,32,3,1.03,IN,1675639879
165,kitimat,54.0524,-128.6534,4.95,73,100,0.45,CA,1675639860
166,carberry,49.8689,-99.3602,-4.87,97,64,2.87,CA,1675639880
167,bambous virieux,-20.3428,57.7575,26.14,89,75,2.57,MU,1675639559
168,palu,-0.8917,119.8707,26.51,81,57,0.89,ID,1675639880
169,naliya,23.2667,68.8333,19.27,80,2,3.42,IN,1675639715
170,east london,-33.0153,27.9116,23.72,84,39,5.4,ZA,1675639608
171,mabaruma,8.2,-59.7833,21.59,98,63,1.63,GY,1675639881
172,ilulissat,69.2167,-51.1,-16.99,85,100,9.77,GL,1675639662
173,pombia,45.653,8.6336,4.71,72,75,2.06,IT,1675639882
174,sitka,57.0531,-135.33,5.94,61,100,7.72,US,1675639707
175,laguna,38.421,-121.4238,14.31,64,20,7.2,US,1675639690
176,itarema,-2.9248,-39.9167,25.92,81,71,5.08,BR,1675639785
177,orlik,52.5178,99.825,-24.09,99,97,0.77,RU,1675639883
178,guerrero negro,27.9769,-114.0611,16.91,70,10,8.23,MX,1675639884
179,brae,60.3964,-1.353,7.9,86,100,11.16,GB,1675639884
180,black forest,39.0131,-104.7008,10.13,28,0,9.26,US,1675639885
181,kushima,31.4583,131.2333,10.95,86,100,2.66,JP,1675639795
182,walvis bay,-22.9575,14.5053,18.94,84,95,2.27,NA,1675639648
183,am timan,11.0297,20.2827,24.68,14,64,3.51,TD,1675639886
184,kodiak,57.79,-152.4072,3.73,100,100,3.09,US,1675639674
185,kavieng,-2.5744,150.7967,28.07,74,94,2.51,PG,1675639551
186,perth,-31.9333,115.8333,22.04,82,75,6.69,AU,1675639887
187,acapulco,16.8634,-99.8901,29.9,58,0,3.09,MX,1675639727
188,bagdarin,54.4333,113.6,-25.16,94,76,1.87,RU,1675639887
189,george town,5.4112,100.3354,25.96,98,20,1.03,MY,1675639756
190,longyearbyen,78.2186,15.6401,-2.09,74,75,8.75,SJ,1675639579
191,hasaki,35.7333,140.8333,7.34,77,1,3.64,JP,1675639546
192,sao joaquim,-28.2939,-49.9317,11.62,69,10,0.55,BR,1675639888
193,aktash,50.3,87.7333,-22.94,93,64,2.01,RU,1675639889
194,koulikoro,14.0,-7.75,22.72,16,1,3.89,ML,1675639889
195,lompoc,34.6391,-120.4579,16.68,75,75,9.26,US,1675639765
196,sao bartolomeu de messines,37.2602,-8.2867,13.01,43,1,1.61,PT,1675639889
197,esperance,-33.8667,121.9,21.34,59,71,7.21,AU,1675639764
198,codrington,-38.2667,141.9667,16.49,67,64,2.66,AU,1675639759
199,lai,9.3952,16.2989,25.22,15,100,2.31,TD,1675639890
200,sur,22.5667,59.5289,21.28,70,24,2.57,OM,1675639890
201,padang,-0.9492,100.3543,23.03,79,99,1.95,ID,1675639731
202,kavaratti,10.5669,72.642,26.64,76,20,3.5,IN,1675639682
203,jonkoping,57.7814,14.1562,-1.16,100,100,3.09,SE,1675639891
204,hearst,49.6835,-83.6665,-16.86,100,97,1.3,CA,1675639891
205,bandar-e lengeh,26.5579,54.8807,19.49,55,1,2.41,IR,1675639892
206,pawili,13.5167,123.2833,25.29,84,26,1.11,PH,1675639892
207,mount isa,-20.7333,139.5,25.87,94,100,4.12,AU,1675639893
208,macau,22.2006,113.5461,18.25,88,40,0.51,MO,1675639893
209,ejido,8.5514,-71.2375,19.08,92,92,1.24,VE,1675639893
210,ourossogui,15.6064,-13.3211,23.79,14,82,4.18,SN,1675639894
211,baykit,61.67,96.37,-13.91,98,100,1.21,RU,1675639668
212,clyde river,70.4692,-68.5914,-28.87,69,0,6.17,CA,1675639704
213,namibe,-15.1961,12.1522,21.59,80,53,2.85,AO,1675639895
214,cascais,38.6979,-9.4215,13.85,51,12,4.02,PT,1675639870
215,gigmoto,13.7796,124.39,26.13,86,42,4.82,PH,1675639896
216,chapada dos guimaraes,-15.4606,-55.7497,22.81,76,93,1.21,BR,1675639712
217,le vauclin,14.5452,-60.8388,25.47,83,59,6.69,MQ,1675639896
218,leningradskiy,69.3833,178.4167,-29.88,98,100,1.84,RU,1675639687
219,razole,16.4833,81.8333,17.79,94,28,1.12,IN,1675639897
220,straseni,47.1414,28.6103,-1.99,90,99,6.36,MD,1675639897
221,illela,13.7292,5.2975,26.98,14,100,4.63,NG,1675639897
222,saryg-sep,51.5,95.6,-22.09,99,98,1.1,RU,1675639898
223,kuito,-12.3833,16.9333,13.84,94,97,2.14,AO,1675639898
224,magadi,12.9667,77.2333,17.03,69,70,2.56,IN,1675639898
225,torbay,47.6666,-52.7314,-3.57,75,75,9.26,CA,1675639550
226,richards bay,-28.783,32.0377,23.51,85,53,1.59,ZA,1675639558
227,san andres,12.5847,-81.7006,28.01,74,20,4.63,CO,1675639666
228,bethel,41.3712,-73.414,5.21,60,100,3.71,US,1675639569
229,aklavik,68.2191,-135.0107,-36.98,98,50,1.09,CA,1675639753
230,rio gallegos,-51.6226,-69.2181,15.03,36,40,11.83,AR,1675639735
231,tabuk,17.4189,121.4443,22.47,83,72,1.52,PH,1675639888
232,igarka,67.4667,86.5833,-20.56,99,98,2.51,RU,1675639900
233,deputatskiy,69.3,139.9,-36.75,99,100,2.1,RU,1675639900
234,daru,-9.0763,143.2092,24.78,94,100,2.21,PG,1675639762
235,torzhok,57.0436,34.9622,-8.66,95,100,1.29,RU,1675639900
236,hecun,36.5333,114.1111,3.29,46,33,1.78,CN,1675639901
237,along,28.1667,94.7667,9.99,67,0,0.71,IN,1675639901
238,finschhafen,-6.6024,147.8681,29.26,68,98,0.79,PG,1675639901
239,westport,41.1415,-73.3579,6.02,71,100,0.45,US,1675639841
240,kant,27.8,79.8,12.02,56,0,2.12,IN,1675639776
241,caravelas,-17.7125,-39.2481,25.82,82,0,4.86,BR,1675639542
242,narrabri,-30.3167,149.7833,29.18,52,0,0.45,AU,1675639902
243,tromso,69.6496,18.957,1.32,93,75,3.09,NO,1675639742
244,bathsheba,13.2167,-59.5167,26.34,73,75,10.8,BB,1675639676
245,cayenne,4.9333,-52.3333,22.02,100,0,0.51,GF,1675639707
246,kieta,-6.2167,155.6333,27.17,79,100,1.75,PG,1675639903
247,balabac,7.9868,117.0645,26.56,80,55,6.33,PH,1675639449
248,ollioules,43.1352,5.848,10.23,84,100,5.81,FR,1675639904
249,iqaluit,63.7506,-68.5145,-27.95,61,75,7.72,CA,1675639744
250,ahipara,-35.1667,173.1667,19.31,94,94,3.4,NZ,1675639774
251,huntington,38.4193,-82.4452,13.5,46,100,2.57,US,1675639905
252,pacific grove,36.6177,-121.9166,13.57,76,75,7.2,US,1675639516
253,marsaxlokk,35.8419,14.5431,8.34,53,20,4.63,MT,1675639905
254,airai,-8.9266,125.4092,17.18,87,98,0.91,TL,1675639617
255,tongliao,43.6125,122.2653,-10.09,66,36,1.86,CN,1675639906
256,creston,41.0586,-94.3614,4.98,81,0,2.57,US,1675639906
257,teguise,29.0605,-13.564,13.12,67,0,3.09,ES,1675639906
258,hilo,19.7297,-155.09,27.93,78,100,3.6,US,1675639570
259,adilpur,27.937,69.3187,18.56,29,0,3.17,PK,1675639907
260,lata,40.1629,-8.3327,8.37,75,0,2.13,PT,1675639734
261,sandy bay,-42.913,147.3532,21.16,56,40,7.72,AU,1675639907
262,uglovskoye,51.3557,80.1942,-7.44,97,100,2.12,RU,1675639908
263,serik,36.9169,31.0989,6.14,90,98,2.95,TR,1675639908
264,missungwi,-2.85,33.0833,19.04,76,54,0.43,TZ,1675639908
265,port macquarie,-31.4333,152.9167,28.27,62,83,2.64,AU,1675639634
266,san patricio,28.017,-97.5169,25.86,64,0,5.14,US,1675639591
267,san cristobal,7.7669,-72.225,24.1,77,33,1.42,VE,1675639611
268,salalah,17.0151,54.0924,22.05,73,0,1.54,OM,1675639653
269,dehloran,32.6941,47.2679,13.31,45,96,3.55,IR,1675639909
270,canguaretama,-6.38,-35.1289,25.98,81,33,3.99,BR,1675639910
271,burnie,-41.0667,145.9167,18.31,59,47,5.2,AU,1675639745
272,dubbo,-32.25,148.6167,25.07,47,0,3.09,AU,1675639910
273,moree,-29.4667,149.85,29.16,42,3,4.29,AU,1675639910
274,coari,-4.085,-63.1414,23.34,97,67,1.51,BR,1675639911
275,grand gaube,-20.0064,57.6608,26.22,80,69,2.68,MU,1675639706
276,darhan,49.4867,105.9228,-23.17,99,76,1.57,MN,1675639693
277,honiara,-9.4333,159.95,25.02,94,100,3.58,SB,1675639641
278,los llanos de aridane,28.6585,-17.9182,13.96,64,75,4.63,ES,1675639681
279,vanimo,-2.6741,141.3028,25.82,87,100,0.94,PG,1675639912
280,muzhi,65.3667,64.6667,-18.0,97,75,1.0,RU,1675639912
281,srednekolymsk,67.45,153.6833,-35.58,98,100,2.34,RU,1675639604
282,isangel,-19.55,169.2667,30.2,65,99,2.47,VU,1675639790
283,goderich,43.7501,-81.7165,2.73,80,94,2.57,CA,1675639667
284,aboso,5.3617,-1.9473,25.04,92,94,1.84,GH,1675639913
285,minab,27.1467,57.0801,15.18,94,1,0.0,IR,1675639914
286,la jutosa,15.6333,-88.0,26.21,86,31,1.68,HN,1675639914
287,isabela,6.7085,121.9711,24.03,78,82,2.09,PH,1675639914
288,camacha,33.0833,-16.3333,13.68,67,20,6.17,PT,1675639915
289,beni suef,29.0731,31.0979,10.48,35,0,4.71,EG,1675639915
290,mimoso do sul,-21.0642,-41.3664,24.56,93,34,0.57,BR,1675639916
291,jingdezhen,29.2947,117.2079,9.97,97,100,0.32,CN,1675639916
292,opotiki,-38.0833,177.2833,18.4,96,100,2.82,NZ,1675639917
293,zhigansk,66.7697,123.3711,-42.62,97,99,0.22,RU,1675639917
294,varasti,44.2378,26.2486,0.12,62,100,2.49,RO,1675639917
295,nishihara,26.1842,127.7558,18.03,100,100,3.6,JP,1675639745
296,kapit,2.0167,112.9333,23.97,97,100,0.08,MY,1675639918
297,fortuna,40.5982,-124.1573,10.52,94,100,3.6,US,1675639668
298,okhotsk,59.3833,143.3,-26.01,82,97,4.91,RU,1675639711
299,lebu,-37.6167,-73.65,16.96,87,1,8.66,CL,1675639600
300,suntar,62.1444,117.6319,-49.34,100,70,1.32,RU,1675639919
301,bow island,49.8668,-111.3684,5.56,75,96,3.6,CA,1675639801
302,bereda,43.2686,-7.5406,2.3,100,32,2.55,ES,1675639919
303,huron,41.1501,-82.5499,7.69,72,99,6.25,US,1675639919
304,port augusta,-32.5,137.7667,27.67,26,10,2.43,AU,1675639920
305,tecpan,14.7623,-90.9947,16.45,66,17,2.29,GT,1675639921
306,lorengau,-2.0226,147.2712,28.22,78,100,2.2,PG,1675639921
307,kiunga,-6.1219,141.2906,24.23,97,99,1.25,PG,1675639922
308,lukovetskiy,64.2956,41.9211,-18.16,98,46,2.23,RU,1675639923
309,fruitvale,39.0817,-108.4968,15.96,36,0,4.63,US,1675639923
310,ambilobe,-13.2,49.05,23.19,93,100,0.87,MG,1675639924
311,vetovo,43.7,26.2667,-3.58,71,99,5.86,BG,1675639924
312,sinnamary,5.3833,-52.95,24.48,87,100,5.89,GF,1675639659
313,champaign,40.1334,-88.2001,8.04,64,0,6.17,US,1675639925
314,stulovo,58.7225,50.1439,-21.9,100,100,1.52,RU,1675639926
315,vila velha,-20.3297,-40.2925,27.19,84,20,3.6,BR,1675639808
316,nantucket,41.2835,-70.0995,7.08,87,0,6.17,US,1675639785
317,iisalmi,63.5592,27.1907,-3.07,97,100,2.51,FI,1675639927
318,kirakira,-10.4544,161.9205,26.0,94,100,9.93,SB,1675639927
319,mogzon,51.7435,111.9606,-26.51,100,96,1.55,RU,1675639928
320,uruzgan,32.8333,66.0,1.53,87,21,3.23,AF,1675639928
321,flinders,-34.5833,150.8552,26.32,65,20,3.13,AU,1675639377
322,kati,12.7441,-8.0726,24.67,17,3,2.02,ML,1675639930
323,lar,26.2039,83.9717,10.76,74,0,2.37,IN,1675639930
324,santa marta,11.2408,-74.199,30.03,58,40,5.14,CO,1675639348
325,provideniya,64.3833,-173.3,-18.94,100,75,6.0,RU,1675639701
326,pangnirtung,66.1451,-65.7125,-37.59,95,91,1.89,CA,1675639932
327,tomatlan,19.9333,-105.25,28.21,46,1,2.5,MX,1675639932
328,porto santo,33.072,-16.3415,15.21,67,20,6.17,PT,1675639933
329,kibre mengist,5.8833,38.9833,11.56,49,3,1.39,ET,1675639934
330,maloye verevo,59.6136,30.1728,-4.35,94,100,4.03,RU,1675639935
331,iquitos,-3.7481,-73.2472,25.02,88,75,1.03,PE,1675639936
332,praia da vitoria,38.7333,-27.0667,16.14,82,75,7.18,PT,1675639938
333,luderitz,-26.6481,15.1594,16.92,90,59,5.32,NA,1675639612
334,batticaloa,7.7102,81.6924,24.8,85,100,3.24,LK,1675639939
335,usinsk,65.9939,57.5281,-18.68,98,96,3.04,RU,1675639939
336,kununurra,-15.7667,128.7333,26.99,89,29,0.0,AU,1675639728
337,shelburne,44.0787,-80.2041,1.42,86,100,5.51,CA,1675639940
338,matay,28.419,30.7792,10.66,34,0,4.02,EG,1675639941
339,ambon,-3.6954,128.1814,27.08,83,20,1.54,ID,1675639793
340,berdigestyakh,62.0989,126.6992,-36.68,99,100,1.25,RU,1675639942
341,morondava,-20.2833,44.2833,24.51,88,82,3.18,MG,1675639942
342,bonavista,48.6499,-53.1147,-5.37,72,73,9.0,CA,1675639869
343,armidale,-30.5167,151.65,26.13,39,4,1.22,AU,1675639943
344,taoudenni,22.6783,-3.9836,16.24,23,27,4.66,ML,1675639943
345,talnakh,69.4865,88.3972,-16.23,97,98,1.34,RU,1675639567
346,hauge,58.3436,6.2812,4.83,93,100,2.36,NO,1675639944
347,khoy,38.5504,44.9535,0.83,83,99,1.2,IR,1675639944
348,surt,31.2089,16.5887,13.9,54,60,8.34,LY,1675639945
349,jijiga,9.35,42.8,14.63,34,5,3.79,ET,1675639945
350,baghdad,33.3406,44.4009,10.95,66,0,3.6,IQ,1675639946
351,mecca,21.4267,39.8261,20.41,68,19,0.85,SA,1675639946
352,staryy nadym,65.6118,72.6842,-24.33,100,100,2.29,RU,1675639643
353,ust-omchug,61.15,149.6333,-36.95,99,81,1.63,RU,1675639687
354,orange cove,36.6244,-119.3137,12.91,66,75,4.12,US,1675639947
355,port-gentil,-0.7193,8.7815,24.98,94,20,0.0,GA,1675639948
356,fairbanks,64.8378,-147.7164,-11.06,79,0,2.06,US,1675639500
357,labuhan,-6.8844,112.2051,25.48,84,100,1.5,ID,1675639795
358,namatanai,-3.6667,152.4333,29.12,66,47,1.14,PG,1675639948
359,oum hadjer,13.2954,19.6966,23.08,11,99,4.48,TD,1675639949
360,shimoda,34.6667,138.95,8.39,56,26,4.56,JP,1675639703
361,warmbad,-28.45,18.7333,24.35,41,8,3.87,NA,1675639949
362,coos bay,43.3665,-124.2179,9.52,87,100,6.69,US,1675639646
363,novo aripuana,-5.1206,-60.3797,23.77,94,84,0.98,BR,1675639684
364,sioux lookout,50.1001,-91.917,-11.96,61,40,1.03,CA,1675639950
365,iberia,29.9502,-91.7507,21.04,49,0,2.57,US,1675639950
366,leshukonskoye,64.8989,45.7622,-21.18,100,94,2.23,RU,1675639951
367,mahibadhoo,3.7833,72.9667,27.24,76,100,3.55,MV,1675639951
368,dingle,10.9995,122.6711,23.68,93,46,3.38,PH,1675639691
369,dekar,-21.5333,21.9333,20.78,81,100,3.22,BW,1675639952
370,camana,-16.6228,-72.7111,24.85,79,81,1.73,PE,1675639912
371,front royal,38.9182,-78.1944,11.29,32,0,1.54,US,1675639824
372,half moon bay,37.4636,-122.4286,12.95,80,75,7.72,US,1675639608
373,nouadhibou,20.931,-17.0347,16.99,51,99,8.75,MR,1675639952
374,ryomgard,56.3843,10.503,2.56,92,40,2.68,DK,1675639953
375,beni mazar,28.4962,30.8029,10.59,34,0,4.11,EG,1675639953
376,vestmanna,62.1564,-7.1664,8.51,93,100,7.2,FO,1675639954
377,hervey bay,-25.2986,152.8535,26.75,80,77,8.72,AU,1675639954
378,evensk,61.95,159.2333,-25.85,78,26,3.79,RU,1675639955
379,kloulklubed,7.0419,134.2556,26.28,79,100,9.54,PW,1675639955
380,ilek,51.5271,53.3831,-19.53,98,61,1.32,RU,1675639955
381,rantepao,-2.9701,119.8978,22.22,79,96,0.93,ID,1675639956
382,juneau,58.3019,-134.4197,1.79,94,100,6.69,US,1675639875
383,marienburg,54.0359,19.0266,-1.17,89,100,2.07,PL,1675639956
384,sirur,18.8333,74.3833,20.13,35,54,1.55,IN,1675639957
385,kaa-khem,51.6833,94.7333,-21.22,96,97,1.27,RU,1675639957
386,micheweni,-4.9667,39.8333,26.03,77,24,3.76,TZ,1675639957
387,saint anthony,45.0205,-93.218,-1.04,65,0,3.09,US,1675639958
388,charleston,32.7766,-79.9309,14.1,96,100,1.54,US,1675639958
389,kushiro,42.975,144.3747,-7.47,79,75,3.6,JP,1675639958
390,pelotas,-31.7719,-52.3425,24.01,73,40,2.57,BR,1675639959
391,port lincoln,-34.7333,135.8667,18.36,70,8,6.2,AU,1675639578
392,marawi,7.9986,124.2928,20.41,86,85,0.87,PH,1675639602
393,pevek,69.7008,170.3133,-36.36,97,86,1.63,RU,1675639639
394,palmerston north,-40.35,175.6167,23.61,83,29,1.34,NZ,1675639785
395,bonthe,7.5264,-12.505,25.22,82,100,3.53,SL,1675639699
396,anloga,5.7947,0.8973,27.32,86,100,6.2,GH,1675639960
397,qarqin,37.4185,66.0436,6.1,67,99,3.19,AF,1675639960
398,saint-georges,12.0564,-61.7485,25.82,78,20,7.72,GD,1675639960
399,zaraza,9.3503,-65.3245,25.17,72,100,4.14,VE,1675639961
400,lima,-12.0432,-77.0282,27.17,69,0,6.17,PE,1675639452
401,coihaique,-45.5752,-72.0662,18.34,45,20,2.57,CL,1675639961
402,tessalit,20.1986,1.0114,19.33,11,70,3.66,ML,1675639962
403,pampierstad,-27.7832,24.6877,20.72,66,52,2.16,ZA,1675639962
404,vadso,70.0744,29.7487,-6.91,86,100,3.6,NO,1675639962
405,kalawit,8.0667,122.5167,25.43,82,70,1.53,PH,1675639963
406,luena,-11.7833,19.9167,15.95,94,92,3.07,AO,1675639963
407,broken hill,-31.95,141.4333,25.57,28,0,5.86,AU,1675639964
408,liverpool,53.4106,-2.9779,1.32,87,0,2.06,GB,1675639757
409,boyolangu,-8.1181,111.8935,25.31,80,99,1.76,ID,1675639964
410,nieuwpoort,51.1244,2.7735,5.61,87,75,3.6,BE,1675639965
411,kenai,60.5544,-151.2583,-1.62,76,100,15.95,US,1675639965
412,poum,-20.2333,164.0167,28.86,80,100,8.99,NC,1675639695
413,turbat,26.0023,63.044,19.47,35,0,2.77,PK,1675639965
414,sitamau,24.0167,75.35,16.01,33,0,1.43,IN,1675639966
415,kamenka,51.3223,42.7678,-13.79,98,87,1.9,RU,1675639966
416,ekhabi,53.5102,142.9671,-18.28,94,100,4.87,RU,1675639967
417,faya,18.3851,42.4509,11.29,66,87,1.48,SA,1675639967
418,taveta,-3.3963,37.6736,20.3,77,35,1.86,KE,1675639967
419,pangody,65.85,74.4859,-25.65,100,100,2.27,RU,1675639968
420,skelleftea,64.7507,20.9528,-2.78,98,23,4.63,SE,1675639968
421,hualmay,-11.0964,-77.6139,23.23,77,49,2.87,PE,1675639874
422,alyangula,-13.8483,136.4192,29.17,55,42,1.5,AU,1675639969
423,marshfield,44.6689,-90.1718,-2.97,80,40,3.6,US,1675639391
424,auki,-8.7676,160.7034,24.48,94,100,4.06,SB,1675639969
425,udachnyy,66.4167,112.4,-34.2,73,98,0.69,RU,1675639794
426,huarmey,-10.0681,-78.1522,23.51,76,45,2.97,PE,1675639630
427,royton,53.5651,-2.1227,0.62,89,59,1.33,GB,1675639970
428,adrar,20.5022,-10.0711,15.05,28,56,4.57,MR,1675639784
429,veraval,20.9,70.3667,20.23,48,1,4.95,IN,1675639970
430,gorontalo,0.5412,123.0595,23.67,87,99,1.55,ID,1675639780
431,rabo de peixe,37.8,-25.5833,14.73,82,20,4.63,PT,1675639971
432,yinchuan,38.4681,106.2731,-2.61,34,22,0.98,CN,1675639971
433,saint-pierre,-21.3393,55.4781,25.82,78,0,2.57,RE,1675639755
434,khasan,42.4308,130.6434,-4.98,76,24,3.78,RU,1675639972
435,goure,13.9835,10.2704,22.44,18,95,4.15,NE,1675639972
436,greenfield,42.9614,-88.0126,0.22,68,40,4.63,US,1675639897
437,bakhmach,51.1808,32.7569,-3.87,96,89,4.06,UA,1675639973
438,broome,42.2506,-75.833,6.0,56,100,5.14,US,1675639650
439,alice springs,-23.7,133.8833,21.75,37,0,0.0,AU,1675639561
440,saint pete beach,27.7253,-82.7412,23.44,76,75,2.57,US,1675639973
441,lovington,32.944,-103.3485,22.47,20,0,5.91,US,1675639974
442,calama,-22.4667,-68.9333,17.27,77,75,10.8,CL,1675639974
443,arlit,18.7369,7.3853,21.76,14,5,3.64,NE,1675639974
444,tilichiki,60.4667,166.1,-26.61,94,17,3.49,RU,1675639975
445,les cayes,18.2,-73.75,23.62,81,4,2.88,HT,1675639975
446,san isidro,-12.1167,-77.05,24.77,73,0,6.17,PE,1675639975
447,polson,47.6936,-114.1632,2.65,85,100,1.79,US,1675639976
448,san jose,37.3394,-121.895,13.36,74,75,7.2,US,1675639732
449,coihueco,-36.6167,-71.8333,24.41,53,100,2.06,CL,1675639836
450,radcliff,37.8404,-85.9491,11.46,57,0,5.66,US,1675639948
451,lavrentiya,65.5833,-171.0,-18.97,91,100,4.1,RU,1675639672
452,keita,14.7551,5.7749,25.09,15,84,2.78,NE,1675639977
453,chancay,-11.5714,-77.2672,22.73,80,35,2.21,PE,1675639977
454,santa maria,-29.6842,-53.8069,23.61,69,20,1.54,BR,1675639900
455,ossining,41.1629,-73.8615,6.4,67,0,1.54,US,1675639868
456,ormara,25.2088,64.6357,21.2,73,0,5.21,PK,1675639978
457,bariadi,-2.8,33.9833,17.5,84,62,1.9,TZ,1675639978
458,pak phanang,8.3511,100.202,24.01,83,100,2.64,TH,1675639978
459,griffith,41.5284,-87.4237,3.96,73,75,4.12,US,1675639979
460,tiebissou,7.1574,-5.2257,27.05,57,88,2.9,CI,1675639979
461,moyo,3.6609,31.7247,21.51,35,11,0.09,UG,1675639979
462,tura,25.5198,90.2201,13.41,52,2,1.16,IN,1675639598
463,axim,4.8699,-2.2405,26.86,87,100,4.18,GH,1675639592
464,sobolevo,54.4299,31.8996,-6.0,95,100,2.34,RU,1675639673
465,natchitoches,31.7668,-93.1335,19.99,52,40,0.0,US,1675639887
466,upernavik,72.7868,-56.1549,-25.05,95,100,2.75,GL,1675639553
467,xiamen,24.4798,118.0819,15.03,100,100,1.0,CN,1675639980
468,sibolga,1.7427,98.7792,21.82,93,100,2.82,ID,1675639981
469,khorixas,-20.3667,14.9667,19.68,53,100,1.72,NA,1675639981
470,chabahar,25.2919,60.643,21.2,69,5,2.83,IR,1675639755
471,flin flon,54.7682,-101.865,-6.09,86,100,4.63,CA,1675639547
472,jackson,42.4165,-122.8345,9.84,68,40,5.66,US,1675639836
473,naryan-mar,67.6713,53.087,-18.34,99,95,3.49,RU,1675639982
474,vangaindrano,-23.35,47.6,22.67,92,100,1.9,MG,1675639654
475,bundaberg,-24.85,152.35,29.56,81,68,3.13,AU,1675639983
476,marzuq,14.4,46.4667,17.18,67,50,1.85,YE,1675639983
477,altagracia de orituco,9.8601,-66.3814,22.45,83,89,2.81,VE,1675639983
478,lesnoy,57.6198,63.0784,-13.7,98,97,1.0,RU,1675639984
479,sorata,-15.7667,-68.6333,6.37,98,100,3.18,BO,1675639985
480,omoljica,44.7606,20.7281,-3.88,65,9,5.86,RS,1675639986
481,pakxe,15.1167,105.7833,23.47,72,88,1.24,LA,1675639986
482,hofn,64.2539,-15.2082,8.09,95,100,15.68,IS,1675639669
483,sola,-13.8833,167.55,27.87,78,100,8.69,VU,1675639774
484,port-cartier,50.0334,-66.8654,-15.18,92,100,1.61,CA,1675639988
485,portland,45.5234,-122.6762,10.34,89,100,6.69,US,1675639198
486,whitehorse,60.7161,-135.0538,-9.55,85,75,7.72,CA,1675639836
487,chapais,49.7834,-74.8492,-19.12,96,100,1.52,CA,1675639606
488,ornskoldsvik,63.2909,18.7153,-0.47,86,43,6.69,SE,1675639989
489,nanortalik,60.1432,-45.2371,-6.21,65,100,15.29,GL,1675639599
490,olinda,-8.0089,-34.8553,27.85,74,40,3.6,BR,1675639989
491,dashitou,43.3067,128.5114,-14.26,96,70,0.49,CN,1675639990
492,trairi,-3.2778,-39.2689,25.59,83,99,3.38,BR,1675639884
493,sept-iles,50.2001,-66.3821,-15.0,84,75,2.06,CA,1675639504
494,yar-sale,66.8333,70.8333,-27.41,100,65,0.45,RU,1675639620
495,jidong,45.2167,131.0833,-15.41,94,99,1.51,CN,1675639991
496,bilibino,68.0546,166.4372,-35.82,100,100,0.71,RU,1675639992
497,bambanglipuro,-7.95,110.2833,25.42,84,94,1.36,ID,1675639993
498,la asuncion,11.0333,-63.8628,24.47,83,100,7.23,VE,1675639993
499,la ronge,55.1001,-105.2842,2.14,69,75,3.09,CA,1675639692
500,pangkalanbuun,-2.6833,111.6167,24.56,93,100,0.87,ID,1675639994
501,buin,-33.7333,-70.75,27.81,56,0,2.61,CL,1675639813
502,bella union,-30.2752,-57.6007,24.28,18,1,1.79,UY,1675639995
503,nueva loja,0.0847,-76.8828,25.01,71,58,1.11,EC,1675639995
504,buckeye,33.3703,-112.5838,24.02,29,0,4.12,US,1675639892
505,joao pinheiro,-17.7425,-46.1725,22.05,83,89,0.48,BR,1675639996
506,markova,48.6758,24.4138,-7.12,96,100,2.66,UA,1675639997
507,naze,28.3667,129.4833,17.51,84,100,5.39,JP,1675639761
508,camden,39.7835,-74.9663,8.91,55,100,3.66,US,1675639833
509,karwar,14.8,74.1333,23.46,56,39,1.74,IN,1675639999
510,chato,-2.6378,31.7669,18.82,82,66,2.39,TZ,1675640000
511,souillac,-20.5167,57.5167,26.21,89,75,2.57,MU,1675639569
512,zavitinsk,50.1167,129.45,-26.95,100,100,2.12,RU,1675640001
513,ewa beach,21.3156,-158.0072,27.97,63,20,9.26,US,1675639909
514,loa janan,-0.583,117.095,24.8,92,98,0.84,ID,1675640002
515,hambantota,6.1241,81.1185,24.52,81,99,5.11,LK,1675639601
516,durban,-29.8579,31.0292,24.45,87,1,0.89,ZA,1675640004
517,puerto baquerizo moreno,-0.9,-89.6,26.25,75,57,2.94,EC,1675639813
518,biak,-0.9131,122.8766,25.03,78,100,2.61,ID,1675639716
519,severo-yeniseyskiy,60.3725,93.0408,-14.84,96,100,2.08,RU,1675640005
520,meulaboh,4.1363,96.1285,23.84,88,100,2.98,ID,1675640006
521,ushumun,52.7833,126.5333,-26.27,100,98,0.64,RU,1675640007
522,nador,35.174,-2.9287,15.14,77,75,4.12,MA,1675640007
523,upington,-28.4478,21.2561,22.21,73,0,0.51,ZA,1675639979
524,uige,-7.6087,15.0613,18.79,93,98,0.31,AO,1675640008
525,goshogawara,40.8044,140.4414,1.39,82,99,1.71,JP,1675639766
526,peniche,39.3558,-9.3811,9.2,63,1,3.2,PT,1675639756
