City_ID,City,Lat,Lng,Max Temp,Humidity,Cloudiness,Wind Speed,Country,Date
0,east london,-33.0153,27.9116,28.52,74,20,4.12,ZA,1675686662
1,cayenne,4.9333,-52.3333,25.02,88,75,3.6,GF,1675686663
2,rikitea,-23.1203,-134.9692,25.18,76,21,1.9,PF,1675686664
3,bambous virieux,-20.3428,57.7575,29.14,70,75,3.6,MU,1675686667
4,nago,26.5881,127.9761,19.47,89,40,6.89,JP,1675686668
5,nouadhibou,20.931,-17.0347,19.99,32,0,9.26,MR,1675686670
6,srandakan,-7.9386,110.2506,24.85,90,100,3.03,ID,1675686671
7,beringovskiy,63.05,179.3167,-29.79,97,92,4.12,RU,1675686672
8,lebu,-37.6167,-73.65,16.04,83,13,7.59,CL,1675686673
9,ushuaia,-54.8,-68.3,9.81,66,75,2.57,AR,1675686674
10,saint pete beach,27.7253,-82.7412,17.32,89,8,3.77,US,1675686676
11,port alfred,-33.5906,26.891,26.77,82,11,1.34,ZA,1675686678
12,ulladulla,-35.35,150.4667,20.32,91,100,0.77,AU,1675686680
13,namie,37.4833,141.0,3.73,74,100,2.08,JP,1675686681
14,georgetown,5.4112,100.3354,24.97,94,40,1.54,MY,1675686164
15,broome,42.2506,-75.833,2.48,81,100,4.63,US,1675686682
16,bilma,18.6853,12.9164,26.85,8,82,6.13,NE,1675686683
17,piopio,-38.4667,175.0167,15.6,99,35,0.61,NZ,1675686684
18,cidreira,-30.1811,-50.2056,25.88,63,13,2.68,BR,1675686684
19,kavieng,-2.5744,150.7967,27.66,77,100,4.0,PG,1675686685
20,dukat,62.55,155.55,-39.49,100,68,1.91,RU,1675686685
21,vitorino freire,-4.0667,-45.1667,27.56,77,86,1.58,BR,1675686685
22,thompson,55.7435,-97.8558,-9.91,92,100,1.54,CA,1675686651
23,bluff,-46.6,168.3333,14.74,72,17,5.64,NZ,1675686686
24,brigantine,39.4101,-74.3646,2.79,97,100,2.24,US,1675686686
25,punta arenas,-53.15,-70.9167,13.06,67,75,10.8,CL,1675686375
26,springbok,-29.6643,17.8865,29.41,23,20,7.03,ZA,1675686687
27,torbay,47.6666,-52.7314,4.66,94,100,9.77,CA,1675686688
28,el alto,-4.2714,-81.2147,21.81,70,94,3.05,PE,1675686689
29,cherskiy,68.75,161.3,-39.03,100,100,2.68,RU,1675686689
30,ouallam,14.3188,2.0866,36.8,8,100,7.28,NE,1675686690
31,vaini,-21.2,-175.2,23.09,94,75,0.51,TO,1675686691
32,kahului,20.8947,-156.47,23.8,83,0,4.12,US,1675686691
33,avarua,-21.2078,-159.775,27.03,89,75,5.14,CK,1675686692
34,gwadar,25.1216,62.3254,23.44,43,0,4.73,PK,1675686687
35,road town,18.4167,-64.6167,27.02,69,20,5.14,VG,1675686423
36,brainerd,46.358,-94.2008,-5.86,73,0,4.12,US,1675686652
37,cabo san lucas,22.8909,-109.9124,18.62,60,43,3.9,MX,1675686230
38,port blair,11.6667,92.75,28.02,78,40,1.54,IN,1675686693
39,cairns,-16.9167,145.7667,27.81,94,40,2.57,AU,1675686694
40,hualmay,-11.0964,-77.6139,22.36,83,93,2.25,PE,1675686694
41,ponta do sol,32.6667,-17.1,19.51,43,1,2.68,PT,1675686694
42,castro,-24.7911,-50.0119,22.66,55,94,0.44,BR,1675686695
43,iquitos,-3.7481,-73.2472,22.02,100,100,0.0,PE,1675686695
44,hilo,19.7297,-155.09,22.93,94,100,2.06,US,1675686695
45,katsuura,35.1333,140.3,10.16,53,100,2.2,JP,1675686696
46,atuona,-9.8,-139.0333,25.59,79,14,6.79,PF,1675686696
47,tahoua,14.8888,5.2692,34.99,8,100,6.17,NE,1675686697
48,yarim,14.298,44.3779,20.11,21,97,0.86,YE,1675686697
49,upernavik,72.7868,-56.1549,-24.49,94,100,5.45,GL,1675686698
50,tuktoyaktuk,69.4541,-133.0374,-38.12,100,79,1.75,CA,1675686698
51,busselton,-33.65,115.3333,18.82,89,0,6.23,AU,1675686645
52,malinovskiy,61.1953,62.8397,-19.72,100,63,1.71,RU,1675686699
53,khatanga,71.9667,102.5,-39.35,100,50,2.12,RU,1675686699
54,lagodekhi,41.8268,46.2767,4.5,80,100,2.15,GE,1675686699
55,batouri,4.4333,14.3667,37.32,9,38,2.07,CM,1675686700
56,kerema,-7.9631,145.7785,25.67,86,100,1.63,PG,1675686700
57,sioux lookout,50.1001,-91.917,-14.96,85,0,3.09,CA,1675686701
58,butaritari,3.0707,172.7902,27.28,80,100,8.27,KI,1675686701
59,narsaq,60.9167,-46.05,-14.88,71,84,4.82,GL,1675686701
60,bredasdorp,-34.5322,20.0403,25.11,68,83,7.4,ZA,1675686702
61,cabra,37.4725,-4.4421,13.71,44,0,1.57,ES,1675686443
62,half moon bay,37.4636,-122.4286,8.5,89,20,4.12,US,1675686403
63,yellowknife,62.456,-114.3525,-25.25,76,20,3.6,CA,1675686685
64,dudinka,69.4058,86.1778,-20.12,99,100,2.71,RU,1675686703
65,qaanaaq,77.484,-69.3632,-25.88,88,100,1.61,GL,1675686703
66,kibuye,-2.0597,29.3482,22.29,58,100,1.13,RW,1675686703
67,beloha,-25.1667,45.05,28.76,57,99,5.35,MG,1675686533
68,kushima,31.4583,131.2333,10.35,95,100,4.9,JP,1675686704
69,leh,34.1667,77.5833,-7.84,84,100,1.86,IN,1675686266
70,polyarnyy,69.1989,33.4478,-5.82,88,100,4.57,RU,1675686704
71,pervoye maya,56.164,44.7196,-9.41,97,99,0.75,RU,1675686705
72,kodiak,57.79,-152.4072,1.73,69,100,3.6,US,1675686705
73,ostrovnoy,68.0531,39.5131,-4.53,93,74,5.73,RU,1675686705
74,kavaratti,10.5669,72.642,27.34,71,4,4.16,IN,1675686706
75,jamestown,42.097,-79.2353,-0.23,100,100,7.2,US,1675686681
76,geraldton,-28.7667,114.6,22.23,73,75,5.14,AU,1675686706
77,megion,61.0296,76.1136,-14.99,97,100,1.08,RU,1675686706
78,dikson,73.5069,80.5464,-18.58,97,100,0.5,RU,1675686707
79,lima,-12.0432,-77.0282,23.28,83,0,3.09,PE,1675686341
80,bewar,27.2184,79.3005,20.68,45,0,2.39,IN,1675686707
81,mangochi,-14.4782,35.2645,24.68,87,100,1.82,MW,1675686708
82,mangrol,21.1167,70.1167,23.37,65,4,7.77,IN,1675686708
83,puerto ayora,-0.7393,-90.3518,25.31,94,100,1.79,EC,1675686708
84,gurupa,-1.405,-51.64,27.09,76,40,1.83,BR,1675686709
85,clausthal-zellerfeld,51.8,10.3333,2.33,86,24,5.81,DE,1675686709
86,tura,25.5198,90.2201,17.23,45,0,1.24,IN,1675686709
87,stephenville,32.2207,-98.2023,12.7,93,0,2.57,US,1675686710
88,salalah,17.0151,54.0924,27.05,54,0,3.09,OM,1675686710
89,souillac,-20.5167,57.5167,29.21,70,75,3.6,MU,1675686711
90,albany,42.6001,-73.9662,2.95,78,91,0.45,US,1675686359
91,santa maria,-29.6842,-53.8069,25.61,61,0,1.03,BR,1675686711
92,kirkwall,58.9848,-2.9587,9.03,81,20,6.69,GB,1675686552
93,namatanai,-3.6667,152.4333,26.32,83,100,2.55,PG,1675686712
94,mnogovershinnyy,53.9353,139.9242,-27.06,95,30,1.63,RU,1675686712
95,fethiye,36.6217,29.1164,10.93,45,100,5.44,TR,1675686712
96,tautira,-17.7333,-149.15,26.89,77,19,5.41,PF,1675686519
97,chuy,-33.6971,-53.4616,25.52,54,0,1.63,UY,1675686713
98,bethel,41.3712,-73.414,2.31,79,100,0.0,US,1675686713
99,nome,64.5011,-165.4064,-11.96,67,0,5.14,US,1675686714
100,yulara,-25.2406,130.9889,27.34,12,0,4.55,AU,1675686714
101,gisborne,-38.6533,178.0042,17.7,90,12,2.15,NZ,1675686714
102,odweyne,9.4092,45.064,28.05,17,37,6.55,SO,1675686715
103,matara,5.9485,80.5353,24.75,90,100,1.45,LK,1675686715
104,juneau,58.3019,-134.4197,2.0,94,100,6.17,US,1675686513
105,acarau,-2.8856,-40.12,27.49,76,100,4.94,BR,1675686716
106,barrow,71.2906,-156.7887,-23.99,77,100,0.0,US,1675686716
107,hermanus,-34.4187,19.2345,28.78,60,32,7.45,ZA,1675686717
108,hithadhoo,-0.6,73.0833,27.71,68,98,5.43,MV,1675686717
109,selma,36.5708,-119.6121,4.29,100,0,1.54,US,1675686231
110,new norfolk,-42.7826,147.0587,15.72,58,100,1.34,AU,1675686717
111,coihaique,-45.5752,-72.0662,13.97,51,0,2.06,CL,1675686718
112,mataura,-46.1927,168.8643,13.68,66,1,2.49,NZ,1675686718
113,chokurdakh,70.6333,147.9167,-29.34,98,100,2.45,RU,1675686719
114,teahupoo,-17.8333,-149.2667,22.98,79,23,6.12,PF,1675686719
115,okha,53.5739,142.9478,-22.13,98,90,3.72,RU,1675686719
116,san vicente,-26.6167,-54.1333,24.38,41,80,0.71,AR,1675686501
117,caravelas,-17.7125,-39.2481,30.32,56,0,4.93,BR,1675686720
118,severo-kurilsk,50.6789,156.125,-5.13,82,67,10.98,RU,1675686721
119,mrakovo,52.7161,56.6244,-14.73,99,44,0.45,RU,1675686721
120,hambantota,6.1241,81.1185,25.19,100,75,6.69,LK,1675686721
121,haines junction,60.7522,-137.5108,-11.03,92,100,1.54,CA,1675686722
122,acapulco,16.8634,-99.8901,22.9,78,0,3.09,MX,1675686726
123,gayny,60.3071,54.3241,-17.4,100,73,1.02,RU,1675686727
124,nerchinskiy zavod,51.3088,119.61,-32.2,100,61,1.31,RU,1675686729
125,kalamazoo,42.2506,-85.55,-2.83,90,6,2.08,US,1675686730
126,bac lieu,9.285,105.7244,24.89,83,95,4.45,VN,1675686731
127,xuddur,4.1213,43.8894,32.53,20,6,8.08,SO,1675686732
128,guerrero negro,27.9769,-114.0611,13.77,78,20,10.31,MX,1675686733
129,wuda,39.4994,106.7117,-0.62,35,6,1.67,CN,1675686733
130,iranshahr,27.2025,60.6848,26.19,24,0,2.06,IR,1675686734
131,mankato,44.1636,-93.9994,-5.03,97,0,6.17,US,1675686650
132,kaitangata,-46.2817,169.8464,12.17,89,7,2.71,NZ,1675686736
133,swakopmund,-22.6833,14.5333,18.58,83,93,3.99,NA,1675686634
134,cermik,38.1361,39.4493,5.34,95,100,7.9,TR,1675686739
135,kapaa,22.0752,-159.319,21.73,92,19,0.89,US,1675686535
136,leningradskiy,69.3833,178.4167,-32.35,99,100,2.3,RU,1675686558
137,saint-joseph,-21.3667,55.6167,28.21,79,68,4.68,RE,1675686740
138,himeji,34.8167,134.7,7.93,57,100,1.12,JP,1675686742
139,sao filipe,14.8961,-24.4956,21.28,56,17,6.79,CV,1675686743
140,tiksi,71.6872,128.8694,-32.14,100,99,1.93,RU,1675686744
141,balakhta,55.38,91.6,-22.83,100,87,0.63,RU,1675686745
142,lagos,6.5833,3.75,33.18,52,65,3.61,NG,1675686298
143,adrar,20.5022,-10.0711,23.0,16,100,3.71,MR,1675686745
144,port elizabeth,-33.918,25.5701,30.16,58,20,4.12,ZA,1675686746
145,tasiilaq,65.6145,-37.6368,-7.91,90,50,2.48,GL,1675686746
146,yerbogachen,61.2767,108.0108,-23.94,99,99,1.21,RU,1675686747
147,zambezi,-13.5432,23.1047,22.43,84,100,3.36,ZM,1675686747
148,oranjestad,12.524,-70.027,27.17,76,20,6.69,AW,1675686683
149,sitka,57.0531,-135.33,1.94,87,100,2.06,US,1675686748
150,honiara,-9.4333,159.95,25.25,91,100,1.98,SB,1675686749
151,komsomolskiy,40.4272,71.7189,8.4,66,100,1.03,UZ,1675686749
152,carnarvon,-24.8667,113.6333,25.17,72,0,10.05,AU,1675686750
153,sohag,26.557,31.6948,18.79,29,4,9.06,EG,1675686750
154,lagoa,39.05,-27.9833,14.22,77,89,12.77,PT,1675686751
155,aldama,22.9167,-98.0667,16.87,93,76,2.05,MX,1675686751
156,nikolskoye,59.7035,30.7861,-1.06,96,94,1.85,RU,1675686752
157,cape town,-33.9258,18.4232,32.84,52,20,5.14,ZA,1675686620
158,vanimo,-2.6741,141.3028,25.46,88,96,2.31,PG,1675686753
159,luangwa,-15.6167,30.4167,30.75,62,43,1.07,ZM,1675686753
160,newport,51.5877,-2.9984,9.27,83,25,2.02,GB,1675686641
161,victoria,22.2855,114.1577,21.08,86,53,1.79,HK,1675686617
162,clyde river,70.4692,-68.5914,-34.87,68,0,1.03,CA,1675686754
163,ahar,38.4774,47.0699,4.95,62,17,6.97,IR,1675686754
164,ambulu,-8.345,113.6058,25.2,89,100,3.51,ID,1675686755
165,hobart,-42.8794,147.3294,15.92,61,40,5.66,AU,1675686755
166,quatre cocos,-20.2078,57.7625,29.06,76,89,6.38,MU,1675686756
167,puerto baquerizo moreno,-0.9,-89.6,25.14,81,93,2.82,EC,1675686756
168,chokwe,-24.5333,32.9833,28.88,61,89,6.55,MZ,1675686756
169,pisco,-13.7,-76.2167,22.03,94,16,1.03,PE,1675686757
170,pilar,-9.5972,-35.9567,27.96,65,92,4.35,BR,1675686757
171,alekseyevsk,57.8406,108.3492,-9.48,95,100,2.98,RU,1675686757
172,mecca,21.4267,39.8261,28.05,46,87,5.98,SA,1675686601
173,lhokseumawe,5.1801,97.1507,24.88,88,100,1.54,ID,1675686758
174,calabozo,8.9242,-67.4293,26.8,55,56,5.04,VE,1675686758
175,karratha,-20.7377,116.8463,31.51,60,0,5.36,AU,1675686759
176,sandwick,60.0,-1.25,8.9,81,75,7.72,GB,1675686759
177,pulaski,34.7668,-92.3001,8.89,94,100,1.79,US,1675686759
178,henties bay,-22.116,14.2845,19.93,77,98,4.73,NA,1675686760
179,puerto colombia,10.9878,-74.9547,24.05,81,42,4.27,CO,1675686760
180,ribeira grande,38.5167,-28.7,16.22,67,40,13.89,PT,1675686760
181,luena,-11.7833,19.9167,19.7,86,99,1.96,AO,1675686761
182,vostok,46.4856,135.8833,-21.61,99,100,2.23,RU,1675686761
183,joensuu,62.6012,29.7632,-4.73,93,100,3.09,FI,1675686761
184,kholm,59.2667,32.85,-4.04,95,100,1.25,RU,1675686762
185,andilamena,-17.0167,48.5833,23.49,76,98,4.53,MG,1675686762
186,bay roberts,47.5999,-53.2648,5.08,95,100,3.58,CA,1675686762
187,mehamn,71.0357,27.8492,1.97,75,0,9.77,NO,1675686763
188,japura,-0.3167,102.35,25.12,80,100,1.33,ID,1675686763
189,medicine hat,50.0501,-110.6683,2.24,75,75,5.66,CA,1675686517
190,victor harbor,-35.5667,138.6167,15.38,83,0,5.34,AU,1675686764
191,petropavlovsk-kamchatskiy,53.0452,158.6483,-14.67,78,40,5.0,RU,1675686764
192,maxixe,-23.8597,35.3472,30.9,58,40,4.12,MZ,1675686765
193,fare,-16.7,-151.0167,26.88,77,5,6.65,PF,1675686627
194,vardo,70.3705,31.1107,-1.01,80,0,10.29,NO,1675686765
195,husavik,66.0449,-17.3389,1.75,65,15,9.28,IS,1675686766
196,ust-ordynskiy,52.805,104.7508,-21.98,100,96,1.37,RU,1675686766
197,norman wells,65.282,-126.8329,-22.98,77,100,2.06,CA,1675686651
198,batagay,67.6333,134.6333,-45.97,99,59,0.95,RU,1675686767
199,altay,47.8667,88.1167,-9.65,84,49,3.08,CN,1675686767
200,bintulu,3.1667,113.0333,24.23,88,40,1.54,MY,1675686768
201,pevek,69.7008,170.3133,-38.26,100,100,1.46,RU,1675686768
202,nantucket,41.2835,-70.0995,6.03,97,100,0.0,US,1675686560
203,bilecik,40.0,30.1667,0.36,99,100,6.85,TR,1675686768
204,arraial do cabo,-22.9661,-42.0278,27.98,69,75,2.57,BR,1675686769
205,pimentel,-6.8367,-79.9342,23.16,83,0,1.03,PE,1675686769
206,airai,-8.9266,125.4092,16.53,94,100,0.94,TL,1675686770
207,aldine,29.9324,-95.3802,15.53,96,0,2.06,US,1675686770
208,dicabisagan,17.0818,122.4157,24.23,89,42,1.19,PH,1675686770
209,agadez,19.75,10.25,23.24,13,22,4.94,NE,1675686771
210,kruisfontein,-34.0033,24.7314,28.82,61,94,4.82,ZA,1675686771
211,volkhov,59.9258,32.3382,-4.05,96,100,1.08,RU,1675686772
212,gravdal,68.1214,13.5031,6.94,100,75,7.72,NO,1675686772
213,bengkulu,-3.8004,102.2655,25.99,82,100,4.62,ID,1675686772
214,mahebourg,-20.4081,57.7,29.16,70,75,3.6,MU,1675686773
215,nanortalik,60.1432,-45.2371,-10.8,82,85,2.55,GL,1675686773
216,vikhorevka,56.1201,101.1636,-10.23,96,99,2.57,RU,1675686774
217,beyneu,45.3167,55.2,3.67,63,74,5.4,KZ,1675686774
218,gewane,10.1664,40.6453,33.96,14,99,6.24,ET,1675686774
219,waingapu,-9.6567,120.2641,25.17,89,100,4.82,ID,1675686775
220,jibuti,11.5,42.5,26.71,37,36,6.92,DJ,1675686775
221,coracao de jesus,-16.6853,-44.365,25.38,73,100,2.2,BR,1675686776
222,saskylakh,71.9167,114.0833,-30.29,98,100,2.31,RU,1675686777
223,mar del plata,-38.0023,-57.5575,24.9,79,40,7.2,AR,1675686609
224,sukumo,32.9333,132.7333,6.91,82,100,2.35,JP,1675686778
225,deputatskiy,69.3,139.9,-35.43,97,100,2.09,RU,1675686779
226,joshimath,30.5667,79.5667,5.42,67,48,2.46,IN,1675686780
227,ust-omchug,61.15,149.6333,-34.16,97,97,1.89,RU,1675686781
228,yumen,40.2833,97.2,-1.68,44,4,3.19,CN,1675686781
229,belyy yar,53.6039,91.3903,-21.06,92,52,1.0,RU,1675686781
230,bilbor,47.05,25.5167,-4.73,75,100,3.31,RO,1675686782
231,mgachi,51.05,142.2667,-20.66,100,92,1.36,RU,1675686783
232,agfalva,47.6899,16.5166,-0.74,43,100,3.94,HU,1675686784
233,lasa,46.6166,10.7002,5.49,57,4,2.07,IT,1675686785
234,severobaykalsk,55.65,109.3167,-16.46,94,100,1.9,RU,1675686786
235,yeniseysk,58.4497,92.1703,-20.09,100,100,0.62,RU,1675686786
236,traralgon,-38.1833,146.5333,11.65,99,15,1.36,AU,1675686787
237,kalabo,-14.97,22.6814,26.52,61,100,2.45,ZM,1675686789
238,shimoda,34.6667,138.95,9.87,58,100,1.66,JP,1675686790
239,lubango,-14.9172,13.4925,21.74,56,73,3.54,AO,1675686791
240,solnechnyy,50.7214,136.6319,-24.23,96,42,1.81,RU,1675686793
241,gornopravdinsk,60.05,69.9,-15.35,98,100,0.91,RU,1675686794
242,fonte boa,-2.4959,-66.2662,23.5,95,100,1.42,BR,1675686794
243,escanaba,45.7453,-87.0646,-7.83,79,100,0.99,US,1675686619
244,mayo,38.8876,-76.5119,9.97,69,0,3.6,US,1675686797
245,matagami,49.7502,-77.6328,-22.94,77,100,2.06,CA,1675686798
246,payakumbuh,-0.2202,100.6308,21.71,82,100,1.45,ID,1675686798
247,saint-pierre,-21.3393,55.4781,28.82,74,0,11.32,RE,1675686800
248,porto novo,6.4965,2.6036,31.9,54,100,5.37,BJ,1675686802
249,clemson,34.6834,-82.8374,7.5,84,0,0.45,US,1675686803
250,saint-philippe,-21.3585,55.7679,28.77,79,61,5.26,RE,1675686804
251,houma,29.5958,-90.7195,8.0,100,0,0.0,US,1675686657
252,tagusao,9.1924,117.8141,25.99,85,94,2.1,PH,1675686806
253,nishihara,26.1842,127.7558,19.81,94,75,5.14,JP,1675686807
254,olinda,-8.0089,-34.8553,22.85,94,75,2.06,BR,1675686413
255,yar-sale,66.8333,70.8333,-29.79,100,100,1.73,RU,1675686807
256,fairbanks,64.8378,-147.7164,-14.02,82,75,1.54,US,1675686600
257,battle creek,42.3212,-85.1797,-1.97,55,100,2.06,US,1675686808
258,serenje,-13.2325,30.2352,21.3,86,62,3.82,ZM,1675686809
259,bitburg,49.9667,6.5333,6.7,64,40,3.09,DE,1675686809
260,kingsland,30.8,-81.6898,11.96,99,0,1.85,US,1675686603
261,lakatoro,-16.0999,167.4164,27.11,81,100,4.96,VU,1675686811
262,araouane,18.9048,-3.5265,27.07,10,100,2.94,ML,1675686812
263,dauphin,51.1494,-100.0502,-0.92,80,100,8.23,CA,1675686812
264,ajdabiya,30.7554,20.2263,12.79,53,100,9.43,LY,1675686812
265,antigonish,45.6169,-61.9986,0.64,95,100,2.36,CA,1675686647
266,fortuna,40.5982,-124.1573,4.51,98,0,0.0,US,1675686814
267,cap malheureux,-19.9842,57.6142,29.15,71,56,2.68,MU,1675686814
268,carbondale,37.7273,-89.2168,1.16,98,0,0.0,US,1675686551
269,uthal,25.8072,66.6219,25.62,31,0,4.96,PK,1675686815
270,vung tau,10.346,107.0843,25.34,81,19,7.46,VN,1675686815
271,namwala,-15.7504,26.4384,25.15,79,61,2.08,ZM,1675686816
272,sibolga,1.7427,98.7792,25.65,79,100,0.89,ID,1675686816
273,am timan,11.0297,20.2827,37.19,6,66,2.99,TD,1675686817
274,vila velha,-20.3297,-40.2925,29.97,76,0,5.66,BR,1675686817
275,darnah,32.767,22.6367,9.91,77,100,7.25,LY,1675686817
276,cape coast,5.1053,-1.2466,29.34,73,88,5.96,GH,1675686818
277,toccoa,34.5773,-83.3324,7.18,86,0,0.0,US,1675686818
278,luderitz,-26.6481,15.1594,22.42,69,19,7.28,NA,1675686818
279,codrington,-38.2667,141.9667,14.03,86,4,2.72,AU,1675686819
280,san pedro,14.35,121.0167,26.57,79,20,3.6,PH,1675686819
281,coari,-4.085,-63.1414,23.53,96,100,0.81,BR,1675686819
282,ilulissat,69.2167,-51.1,-17.99,78,75,5.66,GL,1675686820
283,san patricio,28.017,-97.5169,17.93,95,0,3.86,US,1675686820
284,craigieburn,-37.6,144.95,16.18,83,75,3.09,AU,1675686821
285,manta,-0.95,-80.7333,23.88,83,75,1.54,EC,1675686821
286,breytovo,58.2993,37.8617,-9.73,96,43,2.85,RU,1675686822
287,ormenis,46.0167,25.55,-6.16,88,100,2.36,RO,1675686822
288,saint george,37.1041,-113.5841,1.33,99,75,0.89,US,1675686767
289,nelson,-41.2833,173.2833,16.83,82,0,1.34,NZ,1675686641
290,sao felix do xingu,-6.6447,-51.995,27.2,74,95,1.26,BR,1675686679
291,mandera,3.9366,41.867,36.35,16,29,5.68,KE,1675686823
292,plettenberg bay,-34.0527,23.3716,22.61,87,75,4.11,ZA,1675686823
293,santa cruz,-17.8,-63.1667,24.03,83,75,4.63,BO,1675686331
294,kharan,28.5833,65.4167,18.83,20,0,5.0,PK,1675686824
295,gazanjyk,39.2446,55.5154,13.93,34,100,4.96,TM,1675686824
296,leshukonskoye,64.8989,45.7622,-17.24,99,100,2.18,RU,1675686824
297,thap than,15.4606,99.8917,30.4,48,40,2.12,TH,1675686825
298,pacific grove,36.6177,-121.9166,7.05,89,0,3.09,US,1675686825
299,gazojak,41.1875,61.4036,8.24,40,33,4.46,TM,1675686826
300,kidal,18.4411,1.4078,33.13,7,11,4.31,ML,1675686826
301,aviles,43.5547,-5.9248,11.88,71,40,6.17,ES,1675686636
302,bonanza,14.0289,-84.591,19.51,96,83,1.35,NI,1675686827
303,madinat sittah uktubar,29.8167,31.05,14.78,39,88,8.25,EG,1675686827
304,ciudad real,39.0,-4.0,10.64,52,0,5.36,ES,1675686827
305,necochea,-38.5473,-58.7368,22.55,58,9,7.47,AR,1675686828
306,lang son,21.8333,106.7333,18.13,97,100,0.97,VN,1675686828
307,touros,-5.1989,-35.4608,29.9,60,38,5.24,BR,1675686828
308,la palma del condado,37.3861,-6.5523,15.21,40,0,3.04,ES,1675686829
309,ancud,-41.8697,-73.8203,13.47,67,0,2.02,CL,1675686829
310,tanout,14.9709,8.8879,29.92,8,98,7.83,NE,1675686829
311,pangody,65.85,74.4859,-27.72,100,99,0.73,RU,1675686830
312,estelle,29.8458,-90.1067,12.22,71,100,0.0,US,1675686830
313,marawi,7.9986,124.2928,20.02,95,100,0.4,PH,1675686831
314,qui nhon,13.7667,109.2333,23.11,91,13,0.71,VN,1675686831
315,svidnik,49.3082,21.5703,-2.27,79,100,3.96,SK,1675686831
316,talnakh,69.4865,88.3972,-18.7,99,100,1.83,RU,1675686832
317,sherbakul,54.6316,72.3963,-20.17,100,79,1.4,RU,1675686832
318,asfi,32.2994,-9.2372,15.37,52,0,2.9,MA,1675686832
319,paka,4.6374,103.4368,25.96,83,100,1.54,MY,1675686833
320,bestobe,52.4994,73.0975,-19.89,100,59,0.73,KZ,1675686833
321,new waterford,40.8451,-80.6145,1.69,85,94,4.15,US,1675686537
322,kiboga,0.9161,31.7742,33.77,15,76,2.17,UG,1675686834
323,esperance,-33.8667,121.9,25.55,48,89,5.6,AU,1675686834
324,maceio,-9.6658,-35.7353,28.69,78,75,3.6,BR,1675686557
325,illela,13.7292,5.2975,36.12,9,37,7.67,NG,1675686835
326,mocuba,-16.8392,36.9856,29.8,66,97,0.97,MZ,1675686835
327,kabanjahe,3.1001,98.4908,16.4,98,100,1.39,ID,1675686836
328,narrabri,-30.3167,149.7833,24.18,57,0,0.21,AU,1675686836
329,klaksvik,62.2266,-6.589,8.51,89,100,18.89,FO,1675686837
330,iqaluit,63.7506,-68.5145,-30.73,67,75,3.6,CA,1675686837
331,westport,41.1415,-73.3579,3.53,83,100,1.54,US,1675686837
332,hobyo,5.3505,48.5268,26.51,64,6,9.86,SO,1675686838
333,jumla,29.2747,82.1838,3.59,75,3,2.21,NP,1675686838
334,namibe,-15.1961,12.1522,24.98,67,17,5.44,AO,1675686687
335,daru,-9.0763,143.2092,25.46,89,100,1.91,PG,1675686839
336,avera,33.194,-82.5271,5.51,87,0,2.65,US,1675686839
337,chimbote,-9.0853,-78.5783,21.2,85,87,2.17,PE,1675686590
338,waipawa,-41.4122,175.5153,13.25,88,0,1.9,NZ,1675686839
339,faanui,-16.4833,-151.75,27.0,77,0,7.57,PF,1675686840
340,juegang,32.3174,121.1855,8.88,97,100,2.55,CN,1675686840
341,tual,-5.6667,132.75,27.43,79,100,5.62,ID,1675686840
342,vila franca do campo,37.7167,-25.4333,16.23,94,100,3.29,PT,1675686841
343,ginda,30.6945,78.4932,7.5,74,13,1.31,IN,1675686841
344,manokwari,-0.8667,134.0833,25.3,88,100,4.15,ID,1675686842
345,lavrentiya,65.5833,-171.0,-26.04,93,100,2.46,RU,1675686844
346,mus,39.0,41.75,-1.98,97,100,5.02,TR,1675686845
347,muros,42.7762,-9.0603,15.93,44,0,2.66,ES,1675686845
348,inhambane,-23.865,35.3833,30.99,58,40,4.12,MZ,1675686846
349,morgan city,29.6994,-91.2068,7.0,100,75,1.54,US,1675686846
350,general pico,-35.6566,-63.7568,31.46,25,0,4.64,AR,1675686847
351,hasaki,35.7333,140.8333,7.34,57,100,4.12,JP,1675686849
352,tomatlan,19.9333,-105.25,17.3,60,0,1.58,MX,1675686850
353,maniwaki,46.3834,-75.966,-12.79,78,19,3.09,CA,1675686851
354,bilibino,68.0546,166.4372,-34.77,99,100,0.6,RU,1675686851
355,krasnoselkup,65.7,82.4667,-24.21,100,100,1.71,RU,1675686852
356,xining,36.6167,101.7667,-2.17,42,56,0.86,CN,1675686853
357,fianarantsoa,-21.4333,47.0833,18.83,93,100,3.5,MG,1675686854
358,jambi,-1.6,103.6167,24.35,89,100,1.2,ID,1675686854
359,abay,49.6311,72.8539,-3.79,97,100,3.03,KZ,1675686855
360,hervey bay,-25.2986,152.8535,25.38,72,9,7.19,AU,1675686856
361,lompoc,34.6391,-120.4579,8.4,75,0,9.39,US,1675686857
362,kulhudhuffushi,6.6221,73.07,27.5,72,100,2.71,MV,1675686857
363,urucara,-2.5364,-57.76,25.18,91,100,1.62,BR,1675686858
364,hitoyoshi,32.2167,130.75,9.9,99,100,1.49,JP,1675686858
365,puerto asis,0.5133,-76.5007,22.02,94,99,0.94,CO,1675686860
366,portland,45.5234,-122.6762,6.53,90,100,2.24,US,1675686737
367,college,64.8569,-147.8028,-14.03,81,75,1.54,US,1675686862
368,majene,-3.5403,118.9707,26.16,84,100,3.75,ID,1675686862
369,itaituba,-4.2761,-55.9836,27.09,89,40,0.0,BR,1675686863
370,sao jose da coroa grande,-8.8978,-35.1478,26.8,77,92,5.15,BR,1675686864
371,rorvik,64.8621,11.2373,6.06,93,100,10.8,NO,1675686864
372,yamada,39.4667,141.95,1.58,82,99,1.42,JP,1675686864
373,san ramon,37.7799,-121.978,7.67,92,0,1.54,US,1675686629
374,morehead,37.2711,-87.1764,1.66,100,0,0.0,US,1675686865
375,walvis bay,-22.9575,14.5053,20.08,73,99,3.9,NA,1675686864
376,uusikaupunki,60.8004,21.4084,0.37,85,13,2.78,FI,1675686866
377,garowe,8.4054,48.4845,29.61,31,0,8.24,SO,1675686866
378,san marcos,33.1434,-117.1661,10.55,89,75,2.06,US,1675686711
379,belaya gora,68.5333,146.4167,-31.84,99,100,1.53,RU,1675686866
380,meadow lake,34.8014,-106.5436,6.09,34,0,2.31,US,1675686867
381,bermeo,43.4209,-2.7215,10.39,66,60,5.16,ES,1675686867
382,gold coast,-28.0,153.4333,25.0,79,100,3.09,AU,1675686868
383,zaysan,47.4667,84.8667,-5.56,94,88,0.95,KZ,1675686868
384,presidente epitacio,-21.7633,-52.1156,26.96,71,13,2.01,BR,1675686869
385,riyadh,24.6877,46.7219,29.08,28,12,8.45,SA,1675686622
386,ukiah,39.1502,-123.2078,4.8,95,0,0.0,US,1675686603
387,gigmoto,13.7796,124.39,25.76,88,100,3.35,PH,1675686870
388,mount gambier,-37.8333,140.7667,12.75,90,5,2.27,AU,1675686870
389,derzhavinsk,51.1,66.3167,-11.35,96,99,4.22,KZ,1675686871
390,isangel,-19.55,169.2667,24.06,100,100,1.03,VU,1675686871
391,urengoy,65.9667,78.3667,-26.21,100,99,0.33,RU,1675686693
392,bereda,43.2686,-7.5406,12.3,73,0,4.3,ES,1675686872
393,eydhafushi,5.1033,73.0708,27.27,72,100,2.84,MV,1675686872
394,lunenburg,44.3835,-64.3155,4.03,96,100,2.06,CA,1675686641
395,hamilton,39.1834,-84.5333,0.69,85,100,3.6,US,1675686536
396,santa rosa,14.3122,121.1114,26.99,78,5,3.71,PH,1675686873
397,mitsamiouli,-11.3847,43.2844,27.25,77,100,4.64,KM,1675686873
398,alekseyevka,50.6309,38.6903,-4.59,81,100,4.6,RU,1675686874
399,srednekolymsk,67.45,153.6833,-32.88,98,98,2.98,RU,1675686874
400,kudahuvadhoo,2.6708,72.8944,27.2,75,98,2.52,MV,1675686372
401,hisar,29.1667,75.7167,22.09,36,2,1.81,IN,1675686653
402,port hardy,50.6996,-127.4199,6.1,93,100,5.14,CA,1675686875
403,constitucion,-35.3333,-72.4167,20.22,62,0,1.94,CL,1675686875
404,catalina,32.5056,-110.9211,11.99,44,21,0.91,US,1675686589
405,itaueira,-7.6033,-43.0256,30.85,49,100,2.32,BR,1675686876
406,sol-iletsk,51.1631,54.9918,-15.37,97,34,1.46,RU,1675686876
407,gambo,4.6482,22.2633,39.88,8,32,1.96,CF,1675686876
408,verkhnevilyuysk,63.4453,120.3167,-39.65,99,98,1.33,RU,1675686877
409,kuito,-12.3833,16.9333,24.08,50,75,0.0,AO,1675686877
410,makakilo city,21.3469,-158.0858,23.18,76,0,7.2,US,1675686877
411,itapetinga,-15.2489,-40.2478,28.78,51,8,1.97,BR,1675686878
412,bara,10.3744,10.7288,35.88,8,49,6.06,NG,1675686878
413,farafangana,-22.8167,47.8333,23.9,91,100,3.38,MG,1675686878
414,kalmunai,7.4167,81.8167,25.07,88,100,4.3,LK,1675686879
415,tuatapere,-46.1333,167.6833,15.43,70,95,3.64,NZ,1675686879
416,macedo de cavaleiros,41.5382,-6.9611,11.32,37,0,4.04,PT,1675686692
417,zeya,53.75,127.2667,-21.88,97,100,1.26,RU,1675686792
418,honningsvag,70.9821,25.9704,2.86,70,75,9.26,NO,1675686880
419,ahipara,-35.1667,173.1667,17.71,93,12,3.21,NZ,1675686880
420,sault sainte marie,46.5168,-84.3333,-10.1,85,100,2.57,CA,1675686691
421,forrest city,35.0081,-90.7898,7.37,93,68,3.28,US,1675686881
422,batagay-alyta,67.8006,130.4114,-40.43,97,42,2.21,RU,1675686881
423,bathsheba,13.2167,-59.5167,26.34,69,40,10.29,BB,1675686882
424,ust-kut,56.7938,105.7672,-9.57,94,100,2.98,RU,1675686742
425,coquimbo,-29.9533,-71.3436,18.85,88,20,1.03,CL,1675686812
426,benalla,-36.55,145.9833,19.36,68,0,2.79,AU,1675686882
427,sinnamary,5.3833,-52.95,25.65,86,76,5.25,GF,1675686883
428,america dourada,-11.4553,-41.4361,28.11,50,86,4.41,BR,1675686883
429,smithers,54.7804,-127.1743,1.18,75,100,4.63,CA,1675686636
430,svetlyy,54.675,20.1347,3.03,78,13,3.48,RU,1675686884
431,sistranda,63.7256,8.834,7.98,72,100,10.66,NO,1675686884
432,grindavik,63.8424,-22.4338,2.26,55,75,9.77,IS,1675686885
433,magaria,12.9983,8.9099,33.92,10,100,6.43,NE,1675686885
434,olafsvik,64.8945,-23.7142,1.66,58,95,16.33,IS,1675686885
435,raymondville,26.4815,-97.7831,17.27,94,0,3.47,US,1675686886
436,bubaque,11.2833,-15.8333,25.22,45,11,3.84,GW,1675686886
437,lethem,3.3803,-59.7968,24.91,76,99,4.49,GY,1675686886
438,provideniya,64.3833,-173.3,-20.19,96,84,1.27,RU,1675686887
439,russellville,35.2784,-93.1338,2.08,93,0,0.0,US,1675686887
440,los llanos de aridane,28.6585,-17.9182,15.86,74,75,2.57,ES,1675686887
441,kalaswala,32.2009,74.6491,21.98,47,0,1.67,PK,1675686888
442,pundaguitan,6.3711,126.1689,27.17,78,100,6.74,PH,1675686888
443,madaoua,14.073,5.96,34.53,9,100,6.91,NE,1675686888
444,strezhevoy,60.7333,77.5889,-19.06,100,100,1.22,RU,1675686889
445,chaman,30.9236,66.4512,11.88,32,4,2.02,PK,1675686889
446,egvekinot,66.3167,-179.1667,-27.18,88,100,4.83,RU,1675686890
447,sorland,67.667,12.6934,7.92,93,100,16.53,NO,1675686890
448,xai-xai,-25.0519,33.6442,27.14,75,37,7.21,MZ,1675686890
449,udankudi,8.4333,78.0167,29.1,71,100,6.22,IN,1675686891
450,pringsewu,-5.3582,104.9744,24.19,88,100,1.09,ID,1675686891
451,takhtamygda,54.1,123.5667,-28.0,98,76,1.63,RU,1675686892
452,mazamari,-11.3258,-74.5308,21.04,99,100,0.29,PE,1675686892
453,dunedin,-45.8742,170.5036,16.56,83,56,3.13,NZ,1675686777
454,tinskoy,56.1525,96.9161,-19.39,100,73,1.4,RU,1675686892
455,wewak,-3.5534,143.6268,26.2,85,100,4.93,PG,1675686893
456,labuhan,-6.8844,112.2051,25.94,84,100,4.58,ID,1675686893
457,oeiras,-7.0253,-42.1311,33.23,41,98,1.3,BR,1675686893
458,tiznit,29.5833,-9.5,16.7,24,8,2.82,MA,1675686894
459,te anau,-45.4167,167.7167,13.3,84,100,3.01,NZ,1675686894
460,zhigansk,66.7697,123.3711,-47.34,100,70,1.27,RU,1675686894
461,uva,56.9908,52.1852,-9.51,97,99,1.54,RU,1675686895
462,taganak,6.0833,118.3,28.08,80,20,5.04,PH,1675686895
463,francisco sa,-16.4758,-43.4883,27.08,57,16,2.39,BR,1675686896
464,isabela,6.7085,121.9711,26.03,84,100,0.13,PH,1675686896
465,auki,-8.7676,160.7034,24.59,90,100,2.44,SB,1675686896
466,vikarabad,17.3333,77.9,26.78,23,10,0.79,IN,1675686897
467,pontianak,-0.0333,109.3333,26.99,83,20,1.54,ID,1675686897
468,tungawan,7.5081,122.3711,25.77,81,7,0.77,PH,1675686897
469,tatarsk,55.219,75.9828,-11.91,96,100,2.0,RU,1675686898
470,paita,-5.0892,-81.1144,23.78,76,68,2.57,PE,1675686898
471,saint anthony,45.0205,-93.218,-6.64,86,0,4.12,US,1675686898
472,qingdao,36.0986,120.3719,4.78,87,100,3.0,CN,1675686899
473,ngorongoro,-3.2397,35.4875,14.6,71,100,1.22,TZ,1675686899
474,baykit,61.67,96.37,-21.67,100,89,1.62,RU,1675686750
475,ginir,7.1333,40.7,26.23,15,13,5.96,ET,1675686900
476,puteyets,65.1716,57.091,-18.45,100,94,1.79,RU,1675686900
477,abnub,27.2696,31.1511,18.12,23,0,9.88,EG,1675686900
478,yining,29.0361,114.5636,9.37,97,91,0.3,CN,1675686901
479,boa vista,2.8197,-60.6733,23.99,83,75,3.09,BR,1675686732
480,evensk,61.95,159.2333,-28.68,76,10,4.73,RU,1675686901
481,hami,42.8,93.45,0.91,41,100,1.88,CN,1675686902
482,sharan,54.8167,54.0,-8.0,97,100,1.8,RU,1675686750
483,sajanan,37.0573,9.2426,14.51,78,100,2.69,TN,1675686903
484,asmar,35.0333,71.3581,9.99,74,77,0.33,AF,1675686904
485,hong gai,20.956,107.0946,19.95,95,100,2.66,VN,1675686905
486,gat,31.61,34.7642,14.38,20,71,12.14,IL,1675686310
487,lazaro cardenas,17.9583,-102.2,20.8,77,2,1.92,MX,1675686905
488,inirida,3.8653,-67.9239,23.72,93,99,0.91,CO,1675686906
489,kununurra,-15.7667,128.7333,25.99,73,44,1.54,AU,1675686907
490,moss vale,-34.55,150.3833,18.52,97,100,1.57,AU,1675686908
491,koutiala,12.3917,-5.4642,36.01,7,100,5.15,ML,1675686909
492,okhotsk,59.3833,143.3,-24.11,85,98,3.94,RU,1675686910
493,xingyi,24.1877,102.817,11.41,33,0,2.23,CN,1675686910
494,nouakchott,18.0858,-15.9785,23.96,33,12,5.6,MR,1675686813
495,nador,35.174,-2.9287,16.04,58,20,3.09,MA,1675686911
496,namtsy,62.7161,129.6658,-43.46,100,88,1.64,RU,1675686811
497,puerto madero,14.7208,-92.4215,21.11,100,0,0.0,MX,1675686912
498,taltal,-25.4,-70.4833,21.81,77,0,1.39,CL,1675686913
499,tongzi,28.7829,105.0877,15.46,53,10,1.11,CN,1675686914
500,barra patuca,15.8,-84.2833,24.33,73,0,3.31,HN,1675686915
501,pozo colorado,-23.4923,-58.7972,29.72,46,99,2.71,PY,1675686915
502,ampanihy,-24.7,44.75,28.35,56,100,5.14,MG,1675686916
503,garmsar,35.2182,52.3409,11.45,31,100,1.79,IR,1675686916
504,marco,25.9726,-81.729,19.01,57,100,2.06,US,1675686917
505,svetlogorsk,52.6333,29.7333,-3.17,78,100,2.94,BY,1675686918
506,vyartsilya,62.1764,30.693,-5.76,95,75,2.1,RU,1675686919
507,ponta delgada,37.7333,-25.6667,16.4,82,40,3.6,PT,1675686814
508,tomarovka,50.6834,36.2331,-2.58,91,100,4.28,RU,1675686920
509,witu,-2.3889,40.4382,29.09,50,77,6.47,KE,1675686920
510,paamiut,61.994,-49.6678,-11.12,77,100,1.92,GL,1675686921
511,sibu,2.3,111.8167,24.17,100,40,2.06,MY,1675686921
512,asau,46.4333,26.4,-2.62,83,100,4.44,RO,1675686922
513,tateyama,34.9833,139.8667,10.55,50,100,2.37,JP,1675686922
514,chapais,49.7834,-74.8492,-30.12,100,38,0.68,CA,1675686923
515,jalu,29.0331,21.5482,13.61,42,100,8.58,LY,1675686925
516,locri,38.2414,16.2623,6.29,39,8,4.25,IT,1675686925
517,zelenogradsk,54.9589,20.4767,3.03,81,75,3.0,RU,1675686926
518,ormara,25.2088,64.6357,23.5,54,0,5.56,PK,1675686803
519,iquique,-20.2208,-70.1431,23.02,74,100,2.85,CL,1675686822
520,biltine,14.5333,20.9167,34.75,7,99,4.42,TD,1675686926
521,luganville,-15.5333,167.1667,26.07,85,100,4.22,VU,1675686927
522,camacha,33.0833,-16.3333,15.68,59,75,9.26,PT,1675686927
523,san andres,12.5847,-81.7006,26.01,78,20,6.69,CO,1675686927
524,kloulklubed,7.0419,134.2556,26.28,77,100,9.87,PW,1675686928
525,christchurch,-43.5333,172.6333,18.84,77,40,4.12,NZ,1675686928
526,ngunguru,-35.6167,174.5,18.0,90,81,2.83,NZ,1675686929
527,havelock,34.8791,-76.9013,8.0,88,0,5.14,US,1675686929
528,domoni,-12.2569,44.5319,27.46,80,100,3.15,KM,1675686930
529,nalut,30.3333,10.85,14.95,41,84,3.57,LY,1675686930
530,humaita,-7.5061,-63.0208,23.83,95,100,1.02,BR,1675686931
531,mitu,1.1983,-70.1733,21.85,98,100,0.5,CO,1675686931
532,kananga,-5.8958,22.4178,31.96,39,92,0.34,CD,1675686932
533,veydelevka,50.1521,38.4492,-4.74,81,100,4.86,RU,1675686932
534,aksarka,66.5606,67.7975,-28.93,100,34,1.87,RU,1675686932
535,padang,-0.9492,100.3543,27.03,76,100,1.68,ID,1675686933
536,bose,45.4612,8.0137,6.23,75,96,1.38,IT,1675686933
537,manicore,-5.8092,-61.3003,23.97,94,40,2.06,BR,1675686934
538,teguldet,57.3064,88.1667,-18.73,100,100,1.68,RU,1675686934
539,havoysund,70.9963,24.6622,3.13,77,100,11.09,NO,1675686934
540,bida,9.0833,6.0167,39.72,11,84,2.34,NG,1675686935
541,cuamba,-14.8031,36.5372,24.71,91,100,1.71,MZ,1675686935
542,kargil,34.5667,76.1,-14.35,94,93,2.1,IN,1675686936
543,olga,43.7444,135.2892,-11.52,86,15,2.71,RU,1675686730
544,chumikan,54.7183,135.315,-25.79,94,33,3.82,RU,1675686936
545,cervo,43.6702,-7.4101,11.65,66,3,10.12,ES,1675686936
546,rudnogorsk,57.2639,103.7519,-12.11,93,100,3.28,RU,1675686937
547,tarakan,3.3,117.6333,26.72,83,20,2.57,ID,1675686937
548,vestmanna,62.1564,-7.1664,7.51,100,100,10.29,FO,1675686937
549,kichera,55.9375,110.0997,-13.5,97,100,0.82,RU,1675686938
550,broken hill,-31.95,141.4333,25.62,26,0,4.07,AU,1675686938
551,richards bay,-28.783,32.0377,28.01,66,1,4.64,ZA,1675686939
552,port hawkesbury,45.6169,-61.3485,2.77,98,100,1.03,CA,1675686935
553,port macquarie,-31.4333,152.9167,20.5,78,4,2.82,AU,1675686939
554,belturbet,54.1,-7.45,8.91,82,100,4.59,IE,1675686940
555,baculin,7.4525,126.5842,25.02,85,100,2.56,PH,1675686940
556,tucuma,-0.1833,-50.05,26.29,86,76,2.3,BR,1675686940
557,kitangari,-10.65,39.3333,23.21,87,100,1.86,TZ,1675686941
558,kandava,57.0409,22.7747,1.7,83,24,4.05,LV,1675686941
559,guatire,10.4762,-66.5427,25.38,77,83,1.42,VE,1675686941
560,harper,4.375,-7.7169,28.95,68,58,4.0,LR,1675686942
561,shumskiy,54.8318,99.1328,-16.0,97,47,1.19,RU,1675686942
562,challans,46.8436,-1.8749,8.31,64,5,7.62,FR,1675686942
563,luanda,-8.8368,13.2343,30.0,70,40,6.17,AO,1675686943
564,merritt,50.1123,-120.7942,1.64,95,96,1.84,CA,1675686943
565,ambon,-3.6954,128.1814,28.08,74,40,1.54,ID,1675686943
566,rocha,-34.4833,-54.3333,28.71,31,15,1.77,UY,1675686686
567,digboi,27.3833,95.6333,19.39,43,88,0.59,IN,1675686944
568,samarai,-10.6167,150.6667,26.23,83,100,5.2,PG,1675686944
569,lakefield,43.6775,-95.1717,-4.84,93,0,7.72,US,1675686945
